,stop_name,stop_lat,stop_lon,route_type,route_short_name,suburb
0,Rex St/Taylors Rd (Kings Park),-37.72697521,144.7761524,3,418,Kings Park
1,Yuille St/Centenary Ave (Melton),-37.6761595,144.5957894,3,458,Melton
2,Yuille St/Centenary Ave (Melton),-37.6761595,144.5957894,3,943,Melton
3,Gum Rd/Main Rd West (Albanvale),-37.74149711,144.7758994,3,424,Kings Park
4,Dole Ave/Cheddar Rd (Reservoir),-37.70077481,145.0189511,3,556,Reservoir
5,Kings Rd/Main Rd West (St Albans),-37.74194553,144.7800847,3,424,St Albans
6,Kings Rd/Main Rd West (St Albans),-37.74194553,144.7800847,3,942,St Albans
7,Moffat St/Main Rd West (St Albans),-37.7423246,144.7834665,3,424,St Albans
8,Washington St/Main Rd West (St Albans),-37.74279566,144.7879123,3,424,St Albans
9,Kate St/Main Rd West (St Albans),-37.74356938,144.7945734,3,424,St Albans
10,Kate St/Main Rd West (St Albans),-37.74356938,144.7945734,3,425,St Albans
11,Raleighs Rd/Centenary Ave (Melton),-37.67530436,144.5887764,3,458,Melton
12,Melton Cemetery/O'Neills Rd (Melton),-37.67498051,144.5782544,3,457,Melton
13,Emil Park/O'Neills Rd (Melton),-37.67875895,144.577508,3,457,Melton
14,Reservoir Shopping Centre/Broadway (Reservoir),-37.71712122,145.0097803,3,556,Reservoir
15,Reservoir Shopping Centre/Broadway (Reservoir),-37.71712122,145.0097803,3,561,Reservoir
16,Reservoir Shopping Centre/Broadway (Reservoir),-37.71712122,145.0097803,3,552,Reservoir
17,Reservoir Shopping Centre/Broadway (Reservoir),-37.71712122,145.0097803,3,555,Reservoir
18,Northumberland Rd/Pascoe St (Pascoe Vale),-37.7162865,144.9340441,3,513,Pascoe Vale
19,Lloyd Ave/Cheddar Rd (Reservoir),-37.69918301,145.0196853,3,556,Reservoir
20,Westbreen Primary School/Pascoe St (Pascoe Vale),-37.71655281,144.936385,3,513,Pascoe Vale
21,Joffre Rd/Boundary Rd (Pascoe Vale),-37.71691492,144.9400846,3,513,Pascoe Vale
22,Joffre Rd/Boundary Rd (Pascoe Vale),-37.71691492,144.9400846,3,951,Pascoe Vale
23,Kent Rd/Cumberland Rd (Pascoe Vale),-37.72071084,144.940195,3,513,Pascoe Vale
24,Warwick Rd/Cumberland Rd (Pascoe Vale),-37.72220292,144.9399722,3,513,Pascoe Vale
25,Daley St/Cumberland Rd (Pascoe Vale),-37.72501492,144.9394745,3,513,Pascoe Vale
26,Pleasant St/Cumberland Rd (Pascoe Vale),-37.72711752,144.9391212,3,513,Pascoe Vale
27,Olive Gr/Cumberland Rd (Pascoe Vale),-37.72922911,144.9387676,3,513,Pascoe Vale
28,Gaffney St/Cumberland Rd (Pascoe Vale),-37.73216543,144.9381643,3,513,Pascoe Vale
29,Pardy St/Cumberland Rd (Pascoe Vale),-37.73392851,144.9379792,3,513,Pascoe Vale
30,Liston Ave/Cheddar Rd (Reservoir),-37.69744778,145.0210017,3,556,Reservoir
31,Eastgate St/Cumberland Rd (Pascoe Vale South),-37.73550025,144.9376746,3,513,Pascoe Vale South
32,Bell St/Cumberland Rd (Pascoe Vale South),-37.73761144,144.9372983,3,513,Pascoe Vale South
33,Balmoral Ave/Bell St (Pascoe Vale South),-37.73879226,144.9419521,3,903,Pascoe Vale South
34,Balmoral Ave/Bell St (Pascoe Vale South),-37.73879226,144.9419521,3,513,Pascoe Vale South
35,Royal Pde/Bell St (Pascoe Vale South),-37.73940394,144.9470531,3,903,Pascoe Vale South
36,Royal Pde/Bell St (Pascoe Vale South),-37.73940394,144.9470531,3,513,Pascoe Vale South
37,Davis St/Bell St (Coburg),-37.73979317,144.9507759,3,903,Coburg
38,Davis St/Bell St (Coburg),-37.73979317,144.9507759,3,561,Coburg
39,Davis St/Bell St (Coburg),-37.73979317,144.9507759,3,513,Coburg
40,Linsey St/Bell St (Coburg),-37.74008605,144.9536275,3,903,Coburg
41,Linsey St/Bell St (Coburg),-37.74008605,144.9536275,3,561,Coburg
42,Linsey St/Bell St (Coburg),-37.74008605,144.9536275,3,513,Coburg
43,Kelson St/Bell St (Coburg),-37.74032576,144.9560154,3,903,Coburg
44,Kelson St/Bell St (Coburg),-37.74032576,144.9560154,3,561,Coburg
45,Kelson St/Bell St (Coburg),-37.74032576,144.9560154,3,513,Coburg
46,Nelson St/Bell St (Coburg),-37.74071785,144.9599197,3,903,Coburg
47,Nelson St/Bell St (Coburg),-37.74071785,144.9599197,3,561,Coburg
48,Nelson St/Bell St (Coburg),-37.74071785,144.9599197,3,513,Coburg
49,Coburg Cemetery/Bell St (Preston),-37.74310506,144.9823698,3,903,Preston
50,Coburg Cemetery/Bell St (Preston),-37.74310506,144.9823698,3,513,Preston
51,Tasman St/Bell St (Preston),-37.7435479,144.9856035,3,903,Preston
52,Tasman St/Bell St (Preston),-37.7435479,144.9856035,3,513,Preston
53,Keon Pde/Dalton Rd (Thomastown),-37.69504181,145.0231639,3,556,Thomastown
54,Gilbert Rd/Bell St (Preston),-37.74397544,144.9895299,3,903,Preston
55,Gilbert Rd/Bell St (Preston),-37.74397544,144.9895299,3,513,Preston
56,Erin St/Bell St (Preston),-37.74427667,144.9929264,3,903,Preston
57,Erin St/Bell St (Preston),-37.74427667,144.9929264,3,513,Preston
58,Penola St/Bell St (Preston),-37.74455323,144.9959377,3,903,Preston
59,Penola St/Bell St (Preston),-37.74455323,144.9959377,3,513,Preston
60,Bell Railway Station/Bell St (Preston),-37.7451615,145.0020384,3,513,Preston
61,Plenty Rd/Bell St (Preston),-37.74548267,145.0050372,3,513,Preston
62,Panch Health Centre/Bell St (Preston),-37.74582045,145.0084896,3,513,Preston
63,O'Keefe St/Bell St (Preston),-37.74650014,145.0145886,3,513,Preston
64,Liberty Pde/Bell St (Bellfield (3081)),-37.7494194,145.0371418,3,513,Heidelberg West
65,Oriel Rd/Bell St (Bellfield (3081)),-37.74972949,145.0395284,3,513,Heidelberg West
66,Wood St/Dalton Rd (Thomastown),-37.6920077,145.0254899,3,556,Thomastown
67,Plunkett St/Bell St (Bellfield (3081)),-37.7503134,145.0426682,3,513,Heidelberg West
68,Waterdale Rd/Bell St (Bellfield (3081)),-37.7510312,145.0451917,3,903,Heidelberg West
69,Waterdale Rd/Bell St (Bellfield (3081)),-37.7510312,145.0451917,3,513,Heidelberg West
70,Gotha St/Bell St (Heidelberg Heights),-37.75189457,145.0478022,3,903,Heidelberg West
71,Gotha St/Bell St (Heidelberg Heights),-37.75189457,145.0478022,3,513,Heidelberg West
72,Austin Repat MC/Bell St (Heidelberg Heights),-37.75267606,145.0498247,3,903,Heidelberg West
73,Austin Repat MC/Bell St (Heidelberg Heights),-37.75267606,145.0498247,3,513,Heidelberg West
74,Myrtle St/Bell St (Heidelberg Heights),-37.75384072,145.0526771,3,513,Heidelberg West
75,Cartmell St/Cape St (Heidelberg),-37.75559602,145.0673302,3,513,Heidelberg - Rosanna
76,Brown St/Rosanna Rd (Heidelberg),-37.75210398,145.0703607,3,513,Heidelberg - Rosanna
77,Reid St/Rosanna Rd (Heidelberg),-37.75001084,145.0707669,3,513,Heidelberg - Rosanna
78,St James Rd/Rosanna Rd (Heidelberg),-37.74857343,145.0710426,3,513,Heidelberg - Rosanna
79,Settlement Rd/Dalton Rd (Thomastown),-37.68827471,145.0280611,3,556,Thomastown
80,Station Rd/Rosanna Rd (Rosanna),-37.74569732,145.0715145,3,513,Heidelberg - Rosanna
81,Millicent St/Lower Plenty Rd (Rosanna),-37.74048948,145.06938,3,513,Heidelberg - Rosanna
82,Arden Cres/Lower Plenty Rd (Rosanna),-37.7396742,145.0707743,3,513,Heidelberg - Rosanna
83,Milford Gr/Lower Plenty Rd (Rosanna),-37.73803532,145.0736085,3,513,Heidelberg - Rosanna
84,Lyons St/Hyde St (Footscray),-37.8081946,144.8997382,3,409,West Footscray - Tottenham
85,Harris St/Hyde St (Footscray),-37.81115367,144.8984048,3,409,West Footscray - Tottenham
86,Yarraville Gardens/Hyde St (Yarraville),-37.8142695,144.8972714,3,409,Yarraville
87,Hall St/Hyde St (Yarraville),-37.81611028,144.8969011,3,409,Yarraville
88,Earsdon St/Hyde St (Yarraville),-37.81822106,144.8965118,3,409,Yarraville
89,Little Hyde St/Hyde St (Yarraville),-37.81988291,144.8962147,3,409,Yarraville
90,Alison St/Dalton Rd (Thomastown),-37.68400281,145.0291268,3,556,Thomastown
91,Hyde St/Francis St (Yarraville),-37.8217862,144.8953086,3,409,Yarraville
92,Stephen St/Francis St (Yarraville),-37.82146439,144.8924322,3,409,Yarraville
93,Hughes St/Francis St (Yarraville),-37.82125253,144.890666,3,409,Yarraville
94,Evans St/Bridge St (Port Melbourne),-37.83418498,144.9405878,3,606,Port Melbourne
95,158 Bridge St (Port Melbourne),-37.8358841,144.9424154,3,606,Port Melbourne
96,Bay Street Shops/Bay St (Port Melbourne),-37.8385098,144.9426038,3,606,Port Melbourne
97,Cruikshank St/Liardet St (Port Melbourne),-37.84002104,144.9450277,3,606,Port Melbourne
98,Bridport St/Richardson St (Albert Park),-37.84235279,144.9490312,3,606,Albert Park
99,Albert Park Shops/Richardson St (Albert Park),-37.84357915,144.951145,3,606,Albert Park
100,Kerferd Rd/Richardson St (Albert Park),-37.84557519,144.9545104,3,606,Albert Park
101,Buckingham Ct/Dalton Rd (Thomastown),-37.68055186,145.0297057,3,556,Thomastown
102,Middle Park Primary School/Richardson St (Middle Park),-37.84718593,144.9574888,3,606,Albert Park
103,Wright St/Richardson St (Middle Park),-37.84800597,144.9590459,3,606,Albert Park
104,Nimmo St/Richardson St (Middle Park),-37.84974881,144.9623732,3,606,Albert Park
105,Armstrong St/Danks St (Middle Park),-37.85308237,144.9628497,3,606,Albert Park
106,Fraser St/Patterson St (St Kilda West),-37.85536147,144.9669696,3,606,Albert Park
107,Jacoby Reserve/Park Lane (St Kilda West),-37.85719652,144.9704313,3,606,St Kilda
108,44 Park St (St Kilda),-37.85905675,144.9727445,3,606,St Kilda
109,Wattle St/Dalton Rd (Thomastown),-37.67855662,145.0300306,3,556,Thomastown
110,Warland Rd/Carrington St (Hampton East),-37.93606921,145.0337229,3,825,Hampton Park - Lynbrook
111,Dudley St/Spring Rd (Hampton East),-37.93994574,145.033813,3,825,Hampton Park - Lynbrook
112,Wickham Rd/Spring Rd (Hampton East),-37.94259331,145.0331621,3,825,Hampton Park - Lynbrook
113,Bluff Rd/Wickham Rd (Hampton),-37.94288719,145.0232769,3,708,Cheltenham - Highett
114,Bluff Rd/Wickham Rd (Hampton),-37.94288719,145.0232769,3,825,Cheltenham - Highett
115,Maple St/Dalton Rd (Lalor),-37.67501559,145.0306118,3,556,Lalor
116,June St/Bluff Rd (Hampton),-37.94550441,145.022433,3,825,Cheltenham - Highett
117,Abberfield Nursing Home/Bluff Rd (Sandringham),-37.94805549,145.0219435,3,825,Cheltenham - Highett
118,Sandringham College Highett/Bluff Rd (Sandringham),-37.95077656,145.0213812,3,825,Cheltenham - Highett
119,Sandringham College/Bluff Rd (Sandringham),-37.95432383,145.0206486,3,825,Sandringham - Black Rock
120,Holloway Rd/Bluff Rd (Sandringham),-37.95769938,145.0198865,3,825,Sandringham - Black Rock
121,College Gr/Balcombe Rd (Black Rock),-37.97567846,145.0188683,3,825,Sandringham - Black Rock
122,Cullinane St/Balcombe Rd (Black Rock),-37.97603147,145.0211016,3,825,Sandringham - Black Rock
123,Iluka St/Balcombe Rd (Black Rock),-37.97638519,145.0239154,3,825,Sandringham - Black Rock
124,Summerhill Rd/Balcombe Rd (Beaumaris),-37.97668155,145.0265373,3,825,Beaumaris
125,Haydens Rd/Balcombe Rd (Beaumaris),-37.97710062,145.0300326,3,825,Beaumaris
126,Deakin Ave/Dalton Rd (Lalor),-37.67174442,145.0311632,3,556,Lalor
127,Mcnaught St/Balcombe Rd (Beaumaris),-37.97805351,145.0352783,3,825,Beaumaris
128,Morey St/Balcombe Rd (Beaumaris),-37.9781401,145.0393859,3,825,Beaumaris
129,Thistle St/Mt Alexander Rd (Essendon),-37.75084981,144.9142653,3,903,Essendon - Aberfeldie
130,Thistle St/Mt Alexander Rd (Essendon),-37.75084981,144.9142653,3,476,Essendon - Aberfeldie
131,Thistle St/Mt Alexander Rd (Essendon),-37.75084981,144.9142653,3,477,Essendon - Aberfeldie
132,Thistle St/Mt Alexander Rd (Essendon),-37.75084981,144.9142653,3,483,Essendon - Aberfeldie
133,Ryland Ave/Maroondah Hwy (Croydon),-37.79008775,145.2661176,3,670,Croydon Hills - Warranwood
134,Stirling Rd/Maroondah Hwy (Croydon),-37.788496,145.2706404,3,670,Croydon Hills - Warranwood
135,Stirling Rd/Maroondah Hwy (Croydon),-37.788496,145.2706404,3,963,Croydon Hills - Warranwood
136,Bonnie View Rd/Maroondah Hwy (Croydon North),-37.78108142,145.2880841,3,670,Croydon Hills - Warranwood
137,Golf Links Rd/Maroondah Hwy (Croydon North),-37.77829267,145.2921565,3,670,Croydon Hills - Warranwood
138,Ruth St/Dalton Rd (Lalor),-37.66987509,145.0314734,3,556,Lalor
139,Primrose Rd/Maroondah Hwy (Croydon North),-37.77464495,145.292933,3,670,Croydon Hills - Warranwood
140,Dorset (after) Rd/Maroondah Hwy (Croydon),-37.77209932,145.2938885,3,670,Croydon Hills - Warranwood
141,Dorset (after) Rd/Maroondah Hwy (Croydon),-37.77209932,145.2938885,3,963,Croydon Hills - Warranwood
142,Exeter Rd/Maroondah Hwy (Croydon),-37.7704751,145.2956175,3,670,Croydon Hills - Warranwood
143,Golf Driving Range/Maroondah Hwy (Mooroolbark),-37.76702281,145.3011915,3,670,Chirnside Park
144,Old Melbourne Rd/Maroondah Hwy (Chirnside Park),-37.76546771,145.3045988,3,670,Chirnside Park
145,252 Maroondah Hwy (Mooroolbark),-37.76421039,145.3067844,3,670,Chirnside Park
146,Fletcher Rd/Maroondah Hwy (Mooroolbark),-37.76190865,145.3102993,3,670,Chirnside Park
147,Fletcher Rd/Maroondah Hwy (Mooroolbark),-37.76190865,145.3102993,3,963,Chirnside Park
148,Fletcher Rd/Maroondah Hwy (Mooroolbark),-37.76190865,145.3102993,3,964,Chirnside Park
149,Queen St/Dalton Rd (Lalor),-37.66805061,145.031771,3,556,Lalor
150,Powell St/Spring St (Reservoir),-37.72663676,145.0011975,3,553,Reservoir
151,Frankston St/Spring St (Reservoir),-37.72494772,145.0015039,3,553,Reservoir
152,Broughton Ave/Spring St (Reservoir),-37.72369871,145.001719,3,553,Reservoir
153,Reservoir St/Spring St (Reservoir),-37.72161757,145.0028187,3,553,Reservoir
154,Croft Cres/Spring St (Reservoir),-37.72031608,145.0041924,3,553,Reservoir
155,Viola St/Spring St (Reservoir),-37.71859025,145.0055207,3,553,Reservoir
156,Compton St/Edwardes St (Reservoir),-37.7158732,145.0020654,3,561,Reservoir
157,Compton St/Edwardes St (Reservoir),-37.7158732,145.0020654,3,553,Reservoir
158,Kelsby St/Edwardes St (Reservoir),-37.71540604,144.9979032,3,561,Reservoir
159,Kelsby St/Edwardes St (Reservoir),-37.71540604,144.9979032,3,553,Reservoir
160,Curtin Ave/Dalton Rd (Lalor),-37.66550757,145.0322123,3,556,Lalor
161,Gilbert Rd/Edwardes St (Reservoir),-37.71605004,144.9928489,3,561,Reservoir
162,Gilbert Rd/Edwardes St (Reservoir),-37.71605004,144.9928489,3,553,Reservoir
163,Pitt St/Edwardes St (Reservoir),-37.7143332,144.9878244,3,561,Reservoir
164,Pitt St/Edwardes St (Reservoir),-37.7143332,144.9878244,3,553,Reservoir
165,Newlands Rd/Edwardes St (Reservoir),-37.71400911,144.9846795,3,561,Reservoir
166,Newlands Rd/Edwardes St (Reservoir),-37.71400911,144.9846795,3,553,Reservoir
167,177 Henty St (Reservoir),-37.71751675,144.9826898,3,553,Reservoir
168,169 Henty St (Reservoir),-37.71771013,144.9845111,3,553,Reservoir
169,Wattlebrae St/Henty St (Reservoir),-37.71791593,144.9897014,3,553,Reservoir
170,137 Henty St (Reservoir),-37.71819909,144.9915089,3,553,Reservoir
171,Henty St/Gilbert Rd (Reservoir),-37.71860851,144.9933244,3,553,Reservoir
172,Kia Ora Rd/Gilbert Rd (Reservoir),-37.72002827,144.9930819,3,553,Reservoir
173,Childs Rd/Dalton Rd (Lalor),-37.66193757,145.0310596,3,556,Lalor
174,Dwyer Ave/Gilbert Rd (Reservoir),-37.72378444,144.9924473,3,553,Reservoir
175,Knox St/Gilbert Rd (Reservoir),-37.7254198,144.9921648,3,553,Reservoir
176,Beatty St/Gilbert Rd (Reservoir),-37.72640756,144.9919566,3,553,Reservoir
177,Gilbert Rd/Regent St (Preston),-37.7294489,144.9916816,3,553,Preston
178,Edwardes St/Kelsby St (Reservoir),-37.7151412,144.998228,3,553,Reservoir
179,Leamington St/Kelsby St (Reservoir),-37.71250846,144.9986845,3,553,Reservoir
180,Seaver Gr/Leamington St (Reservoir),-37.71127601,144.9908678,3,553,Reservoir
181,Gill St/Banbury Rd (Reservoir),-37.71260107,144.9893006,3,553,Reservoir
182,Edwardes St/Banbury Rd (Reservoir),-37.71404765,144.9890459,3,553,Reservoir
183,Holroyd Dr/Dalton Rd (Epping),-37.65940225,145.0303444,3,556,Epping
184,Luther College/Plymouth Rd (Croydon),-37.7830725,145.27138,3,380,Croydon Hills - Warranwood
185,Yarra Rd/Plymouth Rd (Croydon Hills),-37.78345349,145.2733924,3,672,Croydon Hills - Warranwood
186,Plymouth Rd/Yarra Rd (Croydon),-37.78365799,145.2744323,3,380,Croydon Hills - Warranwood
187,Clement Cres/Croydon Rd (Croydon),-37.78452504,145.2838144,3,670,Croydon Hills - Warranwood
188,Clement Cres/Croydon Rd (Croydon),-37.78452504,145.2838144,3,671,Croydon Hills - Warranwood
189,Grandview Ave/Croydon Rd (Croydon),-37.7866107,145.2834596,3,670,Croydon Hills - Warranwood
190,Grandview Ave/Croydon Rd (Croydon),-37.7866107,145.2834596,3,671,Croydon Hills - Warranwood
191,Melba College/Croydon Rd (Croydon),-37.78999558,145.2825863,3,670,Croydon Hills - Warranwood
192,Melba College/Croydon Rd (Croydon),-37.78999558,145.2825863,3,671,Croydon Hills - Warranwood
193,Croydon Primary School/Croydon Rd (Croydon),-37.79252069,145.282085,3,670,Croydon Hills - Warranwood
194,Croydon Primary School/Croydon Rd (Croydon),-37.79252069,145.282085,3,671,Croydon Hills - Warranwood
195,Larissa Ave/Maroondah Hwy (Ringwood),-37.81209504,145.2357499,3,670,Ringwood
196,Oliver St/Maroondah Hwy (Ringwood),-37.80945219,145.2392092,3,670,Ringwood
197,Oliver St/Maroondah Hwy (Ringwood),-37.80945219,145.2392092,3,963,Ringwood
198,Grand Pde/Dalton Rd (Epping),-37.65686651,145.0306834,3,556,Epping
199,Rupert St/Maroondah Hwy (Ringwood),-37.80850283,145.2402086,3,670,Ringwood
200,Leonard St/Maroondah Hwy (Ringwood),-37.80707171,145.2421395,3,670,Ringwood
201,Mines Rd/Maroondah Hwy (Ringwood East),-37.80504761,145.2447999,3,670,Ringwood
202,Dublin Rd/Maroondah Hwy (Ringwood East),-37.80268077,145.2474456,3,670,Ringwood
203,Everard Rd/Maroondah Hwy (Ringwood East),-37.80176258,145.2487281,3,670,Ringwood
204,463 Maroondah Hwy (Ringwood),-37.80032061,145.2505453,3,670,Ringwood
205,Oban Rd/Maroondah Hwy (Ringwood),-37.7980486,145.2535178,3,670,Ringwood
206,Oban Rd/Maroondah Hwy (Ringwood),-37.7980486,145.2535178,3,963,Ringwood
207,Maggs St/Maroondah Hwy (Croydon),-37.79398932,145.2593486,3,670,Croydon Hills - Warranwood
208,Hinkley Ave/Maroondah Hwy (Croydon),-37.79196732,145.2621784,3,670,Croydon Hills - Warranwood
209,Cherry Tree Gr/Maroondah Hwy (Croydon),-37.78960612,145.2670714,3,670,Croydon Hills - Warranwood
210,Melbourne Polytechnic/Dalton Rd (Epping),-37.65453985,145.0311303,3,556,Epping
211,Highland Ave/Maroondah Hwy (Croydon),-37.78824725,145.2708847,3,670,Croydon Hills - Warranwood
212,Highland Ave/Maroondah Hwy (Croydon),-37.78824725,145.2708847,3,963,Croydon Hills - Warranwood
213,Warrien Rd/Maroondah Hwy (Croydon North),-37.78236673,145.2847501,3,670,Croydon Hills - Warranwood
214,Bonnie View Rd/Maroondah Hwy (Croydon North),-37.78092008,145.2881446,3,670,Croydon Hills - Warranwood
215,Primrose Rd/Maroondah Hwy (Croydon North),-37.77462562,145.2928427,3,670,Croydon Hills - Warranwood
216,Exeter Rd/Maroondah Hwy (Croydon North),-37.77044578,145.2954592,3,670,Croydon Hills - Warranwood
217,Maroondah Adventure Golf Park/Maroondah Hwy (Chirnside Park),-37.76634628,145.3017746,3,670,Chirnside Park
218,Old Melbourne Rd/Maroondah Hwy (Chirnside Park),-37.76527574,145.3044102,3,670,Chirnside Park
219,Coulstock St/Davisson St (Epping),-37.64972294,145.029784,3,901,Epping
220,Coulstock St/Davisson St (Epping),-37.64972294,145.029784,3,556,Epping
221,Coulstock St/Davisson St (Epping),-37.64972294,145.029784,3,356,Epping
222,Coulstock St/Davisson St (Epping),-37.64972294,145.029784,3,357,Epping
223,Coulstock St/Davisson St (Epping),-37.64972294,145.029784,3,577,Epping
224,East Ridge Business Park/Maroondah Hwy (Chirnside Park),-37.76406395,145.3066289,3,670,Chirnside Park
225,High St/Miller St (Preston),-37.75211598,145.000285,3,553,Preston
226,William St/Regent St (Preston),-37.73069693,145.0036073,3,553,Preston
227,Regent St/Spring St (Preston),-37.72971721,145.00057,3,553,Reservoir
228,Rona St/Spring St (Reservoir),-37.72843236,145.0007975,3,553,Reservoir
229,Powell St/Spring St (Reservoir),-37.72668889,145.0010826,3,553,Reservoir
230,Davisson St/Rufus St (Epping),-37.64897429,145.0308239,3,556,Epping
231,Aquarena/Williamsons Rd (Templestowe Lower),-37.7743757,145.1263795,3,902,Templestowe Lower
232,Aquarena/Williamsons Rd (Templestowe Lower),-37.7743757,145.1263795,3,279,Templestowe Lower
233,Aquarena/Williamsons Rd (Templestowe Lower),-37.7743757,145.1263795,3,293,Templestowe Lower
234,Frankston St/Spring St (Reservoir),-37.72449713,145.0015046,3,553,Reservoir
235,Taylor Ave/Spring St (Reservoir),-37.72337404,145.001705,3,553,Reservoir
236,Moore Cres/Spring St (Reservoir),-37.72137589,145.0029159,3,553,Reservoir
237,Cleeland St/Spring St (Reservoir),-37.71796297,145.0057303,3,553,Reservoir
238,Reservoir Railway Station/Edwardes St (Reservoir),-37.7164395,145.0062363,3,561,Reservoir
239,Reservoir Railway Station/Edwardes St (Reservoir),-37.7164395,145.0062363,3,553,Reservoir
240,Olive St/Edwardes St (Reservoir),-37.71621177,145.0044954,3,561,Reservoir
241,Olive St/Edwardes St (Reservoir),-37.71621177,145.0044954,3,553,Reservoir
242,Kelsby St/Edwardes St (Reservoir),-37.71554675,144.9982284,3,561,Reservoir
243,Kelsby St/Edwardes St (Reservoir),-37.71554675,144.9982284,3,553,Reservoir
244,Willoughby St/Edwardes St (Reservoir),-37.71538658,144.9967579,3,561,Reservoir
245,Willoughby St/Edwardes St (Reservoir),-37.71538658,144.9967579,3,553,Reservoir
246,Gilbert Rd/Edwardes St (Reservoir),-37.71631622,144.9926035,3,561,Reservoir
247,Gilbert Rd/Edwardes St (Reservoir),-37.71631622,144.9926035,3,553,Reservoir
248,Pitt St/Edwardes St (Reservoir),-37.71445321,144.9879913,3,561,Reservoir
249,Pitt St/Edwardes St (Reservoir),-37.71445321,144.9879913,3,553,Reservoir
250,Keith Ave/Greenbrook Dr (Epping),-37.64768064,145.0353917,3,556,Epping
251,Newlands Rd/Edwardes St (Reservoir),-37.71407768,144.9844734,3,561,Reservoir
252,Newlands Rd/Edwardes St (Reservoir),-37.71407768,144.9844734,3,553,Reservoir
253,Newlands Rd/Henty St (Reservoir),-37.71743704,144.9827714,3,553,Reservoir
254,Meadowbank Dr/Furlong Rd (Sunshine North),-37.76142262,144.8222506,3,408,Sunshine North
255,Sunshine Hospital/Furlong Rd (St Albans),-37.76065959,144.8151105,3,408,St Albans
256,Ironbark St/Furlong Rd (St Albans),-37.76043529,144.8132215,3,408,St Albans
257,Ginifer Railway Station/Mulhall Dr (St Albans),-37.75814585,144.8107691,3,408,St Albans
258,Mcdonalds Rd/Greenbrook Dr (Epping),-37.64653878,145.0366346,3,556,Epping
259,St Albans Secondary College/Main Rd East (St Albans),-37.7449737,144.8065612,3,408,St Albans
260,St Albans Secondary College/Main Rd East (St Albans),-37.7449737,144.8065612,3,419,St Albans
261,Lester Ave/Main Rd East (St Albans),-37.74542182,144.8103044,3,408,St Albans
262,Lester Ave/Main Rd East (St Albans),-37.74542182,144.8103044,3,419,St Albans
263,Lyons St/Hyde St (Footscray),-37.80878563,144.8995283,3,409,West Footscray - Tottenham
264,Princess St/Hyde St (Footscray),-37.81124708,144.8980842,3,409,Yarraville
265,Somerville Rd/Hyde St (Yarraville),-37.81468058,144.897078,3,409,Yarraville
266,Greenbrook SC/McDonalds Rd (Epping),-37.64583938,145.0400985,3,901,Epping
267,Greenbrook SC/McDonalds Rd (Epping),-37.64583938,145.0400985,3,556,Epping
268,Lennox St/Hyde St (Yarraville),-37.81633282,144.8967471,3,409,Yarraville
269,204 Hyde St (Yarraville),-37.81787818,144.8964874,3,409,Yarraville
270,Kent St/Hyde St (Yarraville),-37.8201603,144.8961045,3,409,Yarraville
271,Hyde St/Francis St (Yarraville),-37.82174027,144.8957643,3,409,Yarraville
272,Ballarat St/Francis St (Yarraville),-37.82111687,144.8901359,3,409,Yarraville
273,Bunninyong St/Francis St (Yarraville),-37.8208156,144.8874066,3,409,Yarraville
274,271 Narre Warren North Rd (Narre Warren),-37.99940239,145.3120152,3,841,Narre Warren East
275,271 Narre Warren North Rd (Narre Warren),-37.99940239,145.3120152,3,842,Narre Warren East
276,Hansen Reserve/Roberts St (West Footscray),-37.80522521,144.8708823,3,414,West Footscray - Tottenham
277,Indwe St/Roberts St (West Footscray),-37.8031872,144.8713042,3,414,West Footscray - Tottenham
278,Greenview Ct/McDonalds Rd (Epping),-37.64622011,145.0434886,3,901,Epping
279,Greenview Ct/McDonalds Rd (Epping),-37.64622011,145.0434886,3,556,Epping
280,Sunshine Rd/Roberts St (West Footscray),-37.80113668,144.8715335,3,414,West Footscray - Tottenham
281,Stradbroke St/Sunshine Rd (West Footscray),-37.80152754,144.8792112,3,414,West Footscray - Tottenham
282,West Footscray Railway Station/Sunshine Rd (West Footscray),-37.80239998,144.8841267,3,411,West Footscray - Tottenham
283,West Footscray Railway Station/Sunshine Rd (West Footscray),-37.80239998,144.8841267,3,412,West Footscray - Tottenham
284,West Footscray Railway Station/Sunshine Rd (West Footscray),-37.80239998,144.8841267,3,414,West Footscray - Tottenham
285,Ross St/Bridge St (Port Melbourne),-37.83424107,144.9401886,3,606,Port Melbourne
286,Station St/Bridge St (Port Melbourne),-37.83543288,144.9413485,3,606,Port Melbourne
287,Bay Street Shops/Bridge St (Port Melbourne),-37.83674885,144.9434254,3,606,Port Melbourne
288,Cruikshank St/Liardet St (Port Melbourne),-37.84030808,144.9449515,3,606,Port Melbourne
289,Bridport St/Richardson St (Albert Park),-37.84223719,144.9486026,3,606,Albert Park
290,Albert Park Shops/Richardson St (Albert Park),-37.84410384,144.9517782,3,606,Albert Park
291,Kerferd Rd/Richardson St (Albert Park),-37.84628376,144.9553545,3,606,Albert Park
292,Merrill Dr/McDonalds Rd (Epping),-37.64648814,145.0460658,3,901,Epping
293,Merrill Dr/McDonalds Rd (Epping),-37.64648814,145.0460658,3,556,Epping
294,Middle Park Primary School/Richardson St (Middle Park),-37.84754314,144.9578199,3,606,Albert Park
295,Wright St/Richardson St (Middle Park),-37.84814049,144.9590081,3,606,Albert Park
296,Nimmo St/Richardson St (Middle Park),-37.84986453,144.9622905,3,606,Albert Park
297,Armstrong St/Richardson St (Middle Park),-37.85096255,144.9637718,3,606,Albert Park
298,Armstrong St/Danks St (Middle Park),-37.8531223,144.9625531,3,606,Albert Park
299,Langridge St/Patterson St (Middle Park),-37.85483448,144.965677,3,606,Albert Park
300,Fraser St/Park St (St Kilda West),-37.85549678,144.9669772,3,606,Albert Park
301,Jacoby Reserve/Park St (St Kilda West),-37.85754683,144.9708877,3,606,St Kilda
302,Sarnia Ct/Kurrajong Rd (Narre Warren),-38.00222626,145.3128616,3,841,Narre Warren East
303,High St/Memorial Ave (Epping),-37.64487313,145.0280875,3,556,Epping
304,High St/Memorial Ave (Epping),-37.64487313,145.0280875,3,356,Epping
305,High St/Memorial Ave (Epping),-37.64487313,145.0280875,3,357,Epping
306,High St/Memorial Ave (Epping),-37.64487313,145.0280875,3,577,Epping
307,Meadow Glen Dr/McDonalds Rd (Epping),-37.64712291,145.0517502,3,901,Epping
308,Watermoor Ave/Eycot St (Kilsyth South),-37.83735378,145.3036703,3,690,Bayswater North
309,Watermoor Ave/Rendcomb St (Kilsyth South),-37.83639126,145.3044196,3,690,Bayswater North
310,Bibury Ct/Rendcomb St (Kilsyth South),-37.83536005,145.306659,3,690,Bayswater North
311,Collier Rd/Rendcomb St (Kilsyth South),-37.83401866,145.3067579,3,690,Bayswater North
312,Watermoor Ave/Collier Rd (Kilsyth South),-37.83334646,145.305137,3,690,Bayswater North
313,Colchester Rd/Collier Rd (Kilsyth South),-37.8327976,145.3026952,3,690,Bayswater North
314,Colchester Rd/Allambanan Dr (Bayswater North),-37.83316796,145.3015049,3,690,Bayswater North
315,Toolimerin Ave/Allambanan Dr (Bayswater North),-37.83236104,145.2999213,3,690,Bayswater North
316,Bagora Ct/Allambanan Dr (Bayswater North),-37.83155361,145.2983036,3,690,Bayswater North
317,Canterbury Gardens/Allambanan Dr (Bayswater North),-37.8315058,145.2949981,3,690,Bayswater North
318,Bridle Ct/Meadow Glen Dr (Epping),-37.64604139,145.0512004,3,556,Epping
319,Aylesbury Ave/Blandford Cres (Bayswater North),-37.83103698,145.2924978,3,690,Bayswater North
320,Sherbourne Ave/Blandford Cres (Bayswater North),-37.83015837,145.2928135,3,690,Bayswater North
321,Stuart St/Blandford Cres (Bayswater North),-37.82816332,145.2938252,3,690,Bayswater North
322,Bayswater North Primary School/7 Stuart St (Bayswater North),-37.82752963,145.2948738,3,690,Bayswater North
323,Burdekin Ave/Colbury Rd (Bayswater North),-37.82878756,145.296481,3,690,Bayswater North
324,Grant Dr/Burdekin Ave (Bayswater North),-37.82773499,145.2972324,3,690,Bayswater North
325,Leighton Rd/Burdekin Ave (Bayswater North),-37.82563227,145.2976556,3,690,Bayswater North
326,Anderson Cl/Burdekin Ave (Bayswater North),-37.82466524,145.3005864,3,690,Bayswater North
327,Colchester Rd/Burdekin Ave (Bayswater North),-37.82647707,145.3031127,3,690,Bayswater North
328,Canterbury Rd/Colchester Rd (Bayswater North),-37.82379264,145.3038217,3,690,Bayswater North
329,Derby Dr/Meadow Glen Dr (Epping),-37.64383117,145.0516095,3,556,Epping
330,Garden St/Liverpool Rd (Kilsyth),-37.81696549,145.3166676,3,690,Kilsyth
331,Lade Ave/Liverpool Rd (Kilsyth),-37.81579185,145.3165239,3,690,Kilsyth
332,Kilsyth Sports Centre/Liverpool Rd (Kilsyth),-37.81243309,145.316089,3,690,Kilsyth
333,Orchard St/Liverpool Rd (Kilsyth),-37.81125011,145.3159227,3,690,Kilsyth
334,Luscombe Ct/Liverpool Rd (Kilsyth),-37.80985042,145.3157274,3,690,Kilsyth
335,Pleasant St/Liverpool Rd (Kilsyth),-37.80640108,145.3152605,3,690,Kilsyth
336,Mt. Dandenong Rd/Liverpool Rd (Kilsyth),-37.80311065,145.3145629,3,690,Kilsyth
337,Glendale Ave/Derby Dr (Epping),-37.64310067,145.0483079,3,556,Epping
338,Belvedere Dr/Swansea Rd (Montrose),-37.80648579,145.3511753,3,679,Montrose
339,Belvedere Dr/Swansea Rd (Montrose),-37.80648579,145.3511753,3,689,Montrose
340,Greenhills Ave/Cambridge Rd (Montrose),-37.80354635,145.3465724,3,689,Montrose
341,Emery Lane/Cambridge Rd (Montrose),-37.80282742,145.3447938,3,689,Montrose
342,Montrose Brickworks Flora Reserve/Cambridge Rd (Montrose),-37.80155059,145.3405176,3,689,Mooroolbark
343,Acacia Ave/Cambridge Rd (Kilsyth),-37.80122309,145.3371061,3,688,Kilsyth
344,Acacia Ave/Cambridge Rd (Kilsyth),-37.80122309,145.3371061,3,689,Kilsyth
345,Alpine Way/Cambridge Rd (Kilsyth),-37.80091029,145.3341033,3,688,Kilsyth
346,Alpine Way/Cambridge Rd (Kilsyth),-37.80091029,145.3341033,3,689,Kilsyth
347,Chittenup Bend/Overton Lea Bvd (Sydenham),-37.70612279,144.7656943,3,425,Sydenham
348,Hume Dr/Overton Lea Bvd (Sydenham),-37.70909565,144.768021,3,425,Sydenham
349,Hume Dr/Copperfield Dr (Delahey),-37.71039305,144.7708633,3,425,Delahey
350,Winchester Ave/Derby Dr (Epping),-37.6426542,145.0442055,3,556,Epping
351,Lalor Shops/David St (Lalor),-37.67173759,145.0167757,3,566,Lalor
352,Yellow Gum Rd/Copperfield Dr (Delahey),-37.71387234,144.7718593,3,425,Delahey
353,Copperfield College Senior Campus/Copperfield Dr (Delahey),-37.71860226,144.7708441,3,425,Delahey
354,Rex St/Taylors Rd (Delahey),-37.72686198,144.77636,3,418,Delahey
355,Longfellow Dr/Taylors Rd (Delahey),-37.72661222,144.7741097,3,418,Delahey
356,Northumberland Dr/Derby Dr (Epping),-37.64260985,145.042076,3,556,Epping
357,45-Glenferrie Rd/Wattletree Rd (Malvern),-37.86229674,145.0281944,0,5,Armadale
358,Rialto St/Main Rd West (St Albans),-37.74164593,144.7761446,3,424,Kings Park
359,Kings Rd/Main Rd West (St Albans),-37.74212071,144.7802951,3,424,St Albans
360,Kings Rd/Main Rd West (St Albans),-37.74212071,144.7802951,3,942,St Albans
361,Buchanan St/Main Rd West (St Albans),-37.74249035,144.7836545,3,424,St Albans
362,Cleveland St/Main Rd West (St Albans),-37.74284422,144.7871392,3,424,St Albans
363,Scarborough Rd/McDonalds Rd (Epping),-37.64543964,145.0350314,3,901,Epping
364,Scarborough Rd/McDonalds Rd (Epping),-37.64543964,145.0350314,3,556,Epping
365,Carberry Dr/Gisborne-Melton Rd (Kurunjang),-37.67308981,144.5981559,3,458,Melton
366,Riddle Dr/Centenary Ave (Melton),-37.67587984,144.5944493,3,458,Melton
367,Raleighs Rd/Centenary Ave (Melton),-37.67522817,144.589017,3,458,Melton
368,Kurunjang Dr/Centenary Ave (Melton),-37.67454085,144.5849351,3,458,Melton
369,Melton Cemetery/O'Neills Rd (Melton),-37.67486942,144.5781107,3,457,Melton
370,Cassia Rd/O'Neills Rd (Melton),-37.67830775,144.5774773,3,457,Melton
371,Church St/O'Neills Rd (Melton),-37.68150099,144.5776342,3,457,Melton
372,Alexandra St/Unitt St (Melton),-37.68197986,144.5803285,3,457,Melton
373,Joyce St/High St (Melton),-37.6839206,144.5726004,3,455,Melton
374,Joyce St/High St (Melton),-37.6839206,144.5726004,3,456,Melton
375,Joyce St/High St (Melton),-37.6839206,144.5726004,3,458,Melton
376,Church St/High St (Epping),-37.64552951,145.0263814,3,556,Epping
377,Prior Ct/Black Dog Dr (Brookfield),-37.69296045,144.5582778,3,453,Melton South
378,Emms St/Settlement Rd (Bundoora),-37.69699384,145.0516363,3,902,Bundoora
379,High St/Manningham Rd (Templestowe Lower),-37.77457524,145.1157247,3,903,Templestowe Lower
380,High St/Manningham Rd (Templestowe Lower),-37.77457524,145.1157247,3,281,Templestowe Lower
381,High St/Manningham Rd (Templestowe Lower),-37.77457524,145.1157247,3,305,Templestowe Lower
382,Green St/Settlement Rd (Thomastown),-37.69427296,145.038098,3,902,Thomastown
383,Norris Bank Primary School/Settlement Rd (Thomastown),-37.69480568,145.0424957,3,902,Bundoora
384,Brand Dr/Settlement Rd (Thomastown),-37.69391942,145.0347276,3,902,Thomastown
385,Wood St/Settlement Rd (Thomastown),-37.69362854,145.0318774,3,902,Thomastown
386,Dunstans Ct/Keon Pde (Thomastown),-37.69529801,145.0164203,3,902,Thomastown
387,Keon Park Railway Station/Keon Pde (Thomastown),-37.69488962,145.0130401,3,902,Thomastown
388,High St/Mahoneys Rd (Thomastown),-37.69455242,145.0096127,3,902,Thomastown
389,Edgars Rd/Mahoneys Rd (Thomastown),-37.69383767,145.0025209,3,902,Thomastown
390,Lipton Dr/Mahoneys Rd (Thomastown),-37.69331701,144.9973294,3,902,Thomastown
391,Wedge St/High St (Epping),-37.65046773,145.0247432,3,556,Epping
392,Callander St/Mahoneys Rd (Thomastown),-37.69313478,144.9956218,3,902,Thomastown
393,Clay Ct/Mahoneys Rd (Thomastown),-37.69278595,144.9920701,3,902,Thomastown
394,Lawson Cres/Mahoneys Rd (Thomastown),-37.69217805,144.9860192,3,902,Thomastown
395,Lockton Ave/Mahoneys Rd (Thomastown),-37.69179804,144.9822416,3,902,Thomastown
396,Industrial Ave/Mahoneys Rd (Thomastown),-37.69154717,144.9796968,3,902,Thomastown
397,Phillip St/Mahoneys Rd (Thomastown),-37.69114563,144.9757271,3,902,Thomastown
398,Sydney Rd/Mahoneys Rd (Campbellfield),-37.68952242,144.9589421,3,902,Campbellfield - Coolaroo
399,Sydney Rd/Mahoneys Rd (Campbellfield),-37.68952242,144.9589421,3,530,Campbellfield - Coolaroo
400,Cheviot Rd/Mahoneys Rd (Campbellfield),-37.68993354,144.9629113,3,902,Campbellfield - Coolaroo
401,Darren Ct/Bernard St (Cheltenham),-37.9529432,145.059472,3,811,Cheltenham - Highett
402,Darren Ct/Bernard St (Cheltenham),-37.9529432,145.059472,3,812,Cheltenham - Highett
403,Darren Ct/Bernard St (Cheltenham),-37.9529432,145.059472,3,821,Cheltenham - Highett
404,Concord Cct/Oakwood Rd (Albanvale),-37.75089254,144.7685587,3,424,Kings Park
405,Thompsons Heights Shopping Centre/Thompsons Rd (Bulleen),-37.77521266,145.0915024,3,905,Bulleen
406,Thompsons Heights Shopping Centre/Thompsons Rd (Bulleen),-37.77521266,145.0915024,3,200,Bulleen
407,Thompsons Heights Shopping Centre/Thompsons Rd (Bulleen),-37.77521266,145.0915024,3,305,Bulleen
408,Woodland Dr/Oakwood Rd (Albanvale),-37.74604304,144.7699187,3,424,Kings Park
409,Evergreen Ave/Oakwood Rd (Albanvale),-37.7442098,144.7701894,3,424,Kings Park
410,Leckie Dr/Evergreen Ave (Albanvale),-37.74376007,144.7683304,3,424,Kings Park
411,Delamare Dr/Evergreen Ave (Albanvale),-37.74355193,144.7654315,3,424,Kings Park
412,Wintersun Dr/Evergreen Ave (Albanvale),-37.74498015,144.7632891,3,424,Kings Park
413,Stephen Calleja Reserve/157 Opie Rd (Albanvale),-37.74375365,144.7618167,3,424,Kings Park
414,187 Opie Rd (Albanvale),-37.74183024,144.7630321,3,424,Kings Park
415,630 Main Rd West (Albanvale),-37.74030079,144.765064,3,424,Kings Park
416,Balnarring Dr/Main Rd West (Albanvale),-37.74047544,144.7666702,3,424,Kings Park
417,High St/Mitchell St (Northcote),-37.77208666,144.998714,3,567,Northcote
418,44-Duncraig Ave/Wattletree Rd (Armadale),-37.86189324,145.0250907,0,5,Armadale
419,Maplewood Rd/Gillespie Rd (Kings Park),-37.73361903,144.7753182,3,425,Kings Park
420,Beverley St/Gillespie Rd (Kings Park),-37.73406595,144.7794237,3,425,Kings Park
421,Kings Rd/Gillespie Rd (St Albans),-37.73425086,144.7815855,3,425,St Albans
422,Glenrosa Ct/Gillespie Rd (St Albans),-37.73461976,144.785387,3,425,St Albans
423,Atheldene Dr/Gillespie Rd (St Albans),-37.73492939,144.7889181,3,425,St Albans
424,Andrew Rd/Jamieson St (St Albans),-37.73611719,144.788826,3,425,St Albans
425,John St/Jamieson St (St Albans),-37.73894055,144.7870512,3,425,St Albans
426,High St/Bastings St (Northcote),-37.77385752,144.9984505,3,567,Northcote
427,Parnell St/Bernard St (Cheltenham),-37.95339543,145.0628517,3,811,Cheltenham - Highett
428,Parnell St/Bernard St (Cheltenham),-37.95339543,145.0628517,3,812,Cheltenham - Highett
429,Parnell St/Bernard St (Cheltenham),-37.95339543,145.0628517,3,821,Cheltenham - Highett
430,Regent Pde/Bernard St (Cheltenham),-37.95368042,145.0648359,3,811,Cheltenham - Highett
431,Regent Pde/Bernard St (Cheltenham),-37.95368042,145.0648359,3,812,Cheltenham - Highett
432,Regent Pde/Bernard St (Cheltenham),-37.95368042,145.0648359,3,821,Cheltenham - Highett
433,Cheltenham Secondary College/Bernard St (Cheltenham),-37.95402239,145.067547,3,811,Cheltenham - Highett
434,Cheltenham Secondary College/Bernard St (Cheltenham),-37.95402239,145.067547,3,812,Cheltenham - Highett
435,Cheltenham Secondary College/Bernard St (Cheltenham),-37.95402239,145.067547,3,821,Cheltenham - Highett
436,Cheltenham Secondary College/Bernard St (Cheltenham),-37.95402239,145.067547,3,631,Cheltenham - Highett
437,Willen St/Bernard St (Cheltenham),-37.95453925,145.0715852,3,811,Cheltenham - Highett
438,Willen St/Bernard St (Cheltenham),-37.95453925,145.0715852,3,812,Cheltenham - Highett
439,Willen St/Bernard St (Cheltenham),-37.95453925,145.0715852,3,821,Cheltenham - Highett
440,Willen St/Bernard St (Cheltenham),-37.95453925,145.0715852,3,631,Cheltenham - Highett
441,Kingston Centre/Bernard St (Cheltenham),-37.95475456,145.0759272,3,821,Cheltenham - Highett
442,Kingston Centre/Bernard St (Cheltenham),-37.95475456,145.0759272,3,631,Cheltenham - Highett
443,Warrigal Rd/Kingston Rd (Heatherton),-37.9534012,145.0780339,3,821,Moorabbin - Heatherton
444,Warrigal Rd/Kingston Rd (Heatherton),-37.9534012,145.0780339,3,631,Moorabbin - Heatherton
445,Andrew St/Bastings St (Northcote),-37.7744256,145.003249,3,567,Northcote
446,Kingston Centre/Kingston Rd (Heatherton),-37.95366634,145.0804739,3,821,Moorabbin - Heatherton
447,Kingston Centre/Kingston Rd (Heatherton),-37.95366634,145.0804739,3,631,Moorabbin - Heatherton
448,St Andrews Dr/Kingston Rd (Heatherton),-37.953993,145.0828213,3,821,Moorabbin - Heatherton
449,St Andrews Dr/Kingston Rd (Heatherton),-37.953993,145.0828213,3,631,Moorabbin - Heatherton
450,Kingston Heath Golf Club/Kingston Rd (Heatherton),-37.95433869,145.0863405,3,821,Moorabbin - Heatherton
451,Kingston Heath Golf Club/Kingston Rd (Heatherton),-37.95433869,145.0863405,3,631,Moorabbin - Heatherton
452,Near Willis St/Kingston Rd (Heatherton),-37.95482827,145.0904023,3,821,Moorabbin - Heatherton
453,Near Willis St/Kingston Rd (Heatherton),-37.95482827,145.0904023,3,631,Moorabbin - Heatherton
454,Pietro Rd/Kingston Rd (Heatherton),-37.95532671,145.094464,3,821,Moorabbin - Heatherton
455,Pietro Rd/Kingston Rd (Heatherton),-37.95532671,145.094464,3,631,Moorabbin - Heatherton
456,Old Dandenong Rd/Kingston Rd (Heatherton),-37.95597392,145.0993754,3,821,Moorabbin - Heatherton
457,Old Dandenong Rd/Kingston Rd (Heatherton),-37.95597392,145.0993754,3,631,Moorabbin - Heatherton
458,Peace Rd/Kingston Rd (Clarinda),-37.95691436,145.107398,3,821,Moorabbin - Heatherton
459,Heatherton Christian College/Kingston Rd (Clarinda),-37.95741167,145.1114258,3,821,Moorabbin - Heatherton
460,Sharp St/Bastings St (Northcote),-37.7748313,145.0064512,3,567,Northcote
461,Nicholson St/Johnston St (Abbotsford),-37.80026472,144.9980672,3,200,Abbotsford
462,Nicholson St/Johnston St (Abbotsford),-37.80026472,144.9980672,3,207,Abbotsford
463,Victory Road Landfill/Clayton Rd (Clayton South),-37.95324117,145.1143551,3,705,Clayton South
464,Victory Road Landfill/Clayton Rd (Clayton South),-37.95324117,145.1143551,3,821,Clayton South
465,Unitt St/O'Neills Rd (Melton),-37.68191942,144.5778247,3,457,Melton
466,Alexandra St/Unitt St (Melton),-37.68214694,144.5796881,3,457,Melton
467,Joyce St/High St (Melton),-37.68403627,144.5725286,3,455,Melton
468,Joyce St/High St (Melton),-37.68403627,144.5725286,3,456,Melton
469,Joyce St/High St (Melton),-37.68403627,144.5725286,3,458,Melton
470,Northcote St/Bastings St (Northcote),-37.7749931,145.0080249,3,567,Northcote
471,High St/Trethowan Ave (Melton West),-37.68484374,144.5544848,3,459,Melton West
472,Helen Ct/Trethowan Ave (Melton West),-37.68439424,144.5510639,3,459,Melton West
473,Bulmans Rd/Westlake Dr (Melton West),-37.68295982,144.5492515,3,459,Melton West
474,Johnson Park/Bastings St (Northcote),-37.77530745,145.0106278,3,567,Northcote
475,Warrigal Rd/Waverley Rd (Malvern East),-37.8805105,145.0922211,3,767,Ashwood - Chadstone
476,Warrigal Rd/Waverley Rd (Malvern East),-37.8805105,145.0922211,3,623,Ashwood - Chadstone
477,Margot St/Waverley Rd (Chadstone),-37.88093818,145.0958144,3,767,Ashwood - Chadstone
478,Margot St/Waverley Rd (Chadstone),-37.88093818,145.0958144,3,623,Ashwood - Chadstone
479,Amaroo St/Waverley Rd (Chadstone),-37.88125988,145.0984326,3,767,Ashwood - Chadstone
480,Amaroo St/Waverley Rd (Chadstone),-37.88125988,145.0984326,3,623,Ashwood - Chadstone
481,Baradine St/Waverley Rd (Chadstone),-37.88159622,145.1014029,3,767,Ashwood - Chadstone
482,Baradine St/Waverley Rd (Chadstone),-37.88159622,145.1014029,3,623,Ashwood - Chadstone
483,Nyrang St/Huntingdale Rd (Chadstone),-37.88133384,145.1091753,3,767,Ashwood - Chadstone
484,Melinga Cres/Huntingdale Rd (Chadstone),-37.87814434,145.1097799,3,767,Ashwood - Chadstone
485,Burton St/Huntingdale Rd (Chadstone),-37.87634709,145.1100987,3,767,Ashwood - Chadstone
486,Jordanville Railway Station/Huntingdale Rd (Ashwood),-37.87251891,145.1107763,3,767,Ashwood - Chadstone
487,Russell St/Bastings St (Northcote),-37.77565718,145.0137294,3,567,Northcote
488,Electra Ave/Huntingdale Rd (Ashwood),-37.87059608,145.1111324,3,767,Ashwood - Chadstone
489,High Street Rd/Huntingdale Rd (Ashwood),-37.86745142,145.1117243,3,767,Ashwood - Chadstone
490,Sylvan Cres/Huntingdale Rd (Ashwood),-37.86622959,145.1119601,3,767,Ashwood - Chadstone
491,Essex Heights Reserve/111 Huntingdale Rd (Ashwood),-37.86353405,145.1124608,3,767,Ashwood - Chadstone
492,Eildon Rd/Huntingdale Rd (Ashwood),-37.86220448,145.1127221,3,767,Ashwood - Chadstone
493,Arthur St/Huntingdale Rd (Ashwood),-37.85988546,145.1130995,3,767,Ashwood - Chadstone
494,Leyland Rd/Huntingdale Rd (Ashwood),-37.85745115,145.1135935,3,767,Ashwood - Chadstone
495,Peacock St/Highbury Rd (Burwood),-37.85555133,145.114824,3,767,Burwood
496,Station St/Highbury Rd (Burwood),-37.85595755,145.1182462,3,767,Burwood
497,Goold St/Station St (Burwood),-37.85450301,145.119147,3,767,Burwood
498,Grandview Gr/Bastings St (Northcote),-37.77579494,145.0149519,3,567,Northcote
499,Talbett St/Station St (Burwood),-37.85309253,145.1194216,3,767,Burwood
500,Station St/Burwood Hwy (Burwood),-37.85066567,145.1192559,3,767,Burwood
501,Deakin University/Burwood Hwy (Burwood),-37.85019744,145.1153354,3,767,Burwood
502,Burwood Hwy/Elgar Rd (Burwood),-37.84870924,145.1090771,3,767,Burwood
503,Burwood Hwy/Elgar Rd (Burwood),-37.84870924,145.1090771,3,768,Burwood
504,Burwood Hwy/Elgar Rd (Burwood),-37.84870924,145.1090771,3,281,Burwood
505,Daniel St/Elgar Rd (Burwood),-37.84700187,145.1093821,3,767,Burwood
506,Daniel St/Elgar Rd (Burwood),-37.84700187,145.1093821,3,768,Burwood
507,Daniel St/Elgar Rd (Burwood),-37.84700187,145.1093821,3,281,Burwood
508,Uganda St/Elgar Rd (Burwood),-37.84389306,145.1099615,3,767,Burwood
509,Uganda St/Elgar Rd (Burwood),-37.84389306,145.1099615,3,768,Burwood
510,Uganda St/Elgar Rd (Burwood),-37.84389306,145.1099615,3,201,Burwood
511,Uganda St/Elgar Rd (Burwood),-37.84389306,145.1099615,3,281,Burwood
512,Cadorna St/Elgar Rd (Burwood),-37.84181708,145.1103214,3,767,Burwood
513,Cadorna St/Elgar Rd (Burwood),-37.84181708,145.1103214,3,768,Burwood
514,Cadorna St/Elgar Rd (Burwood),-37.84181708,145.1103214,3,281,Burwood
515,Wattle Park/Elgar Rd (Burwood),-37.83775083,145.110766,3,767,Burwood
516,Wattle Park/Elgar Rd (Burwood),-37.83775083,145.110766,3,768,Burwood
517,Wattle Park/Elgar Rd (Burwood),-37.83775083,145.110766,3,281,Burwood
518,Duncan St/Rathmines St (Fairfield),-37.77640378,145.0163207,3,567,Alphington - Fairfield
519,Corrigan Rd/Henderson Rd (Keysborough),-37.98191686,145.1644922,3,824,Keysborough
520,Walnut Cres/Henderson Rd (Keysborough),-37.98175828,145.1629932,3,824,Keysborough
521,Alderney Rd/Henderson Rd (Keysborough),-37.98153163,145.1611772,3,824,Keysborough
522,Gwent St/Paterson Rd (Springvale South),-37.97963185,145.155532,3,824,Springvale South
523,Northgate Dr/Paterson Rd (Springvale South),-37.97918677,145.1518657,3,824,Springvale South
524,Springvale Rd/Paterson Rd (Springvale South),-37.97870161,145.14795,3,824,Springvale South
525,226 Clarke Rd (Springvale South),-37.97738313,145.1460591,3,824,Springvale South
526,Kingston Gardens Aged Care/201 Clarke Rd (Springvale South),-37.9757183,145.145065,3,824,Springvale South
527,Wingrove St/Rathmines St (Fairfield),-37.77764399,145.0161173,3,567,Alphington - Fairfield
528,Spring Rd/Clarke Rd (Springvale South),-37.96781307,145.1403805,3,824,Springvale South
529,Camelot Dr/Clarke Rd (Springvale South),-37.96537223,145.1393265,3,824,Springvale South
530,Melview Dr/Clarke Rd (Springvale South),-37.96334269,145.1386379,3,824,Springvale South
531,Heatherton Rd/Westall Rd (Springvale),-37.95958988,145.1366838,3,824,Clayton South
532,Bellavista Cres/Westall Rd (Springvale),-37.95517695,145.1374327,3,824,Clayton South
533,Libbett Ave/Westall Rd (Springvale),-37.95213993,145.1379988,3,824,Clayton South
534,Spring Valley Dr/Westall Rd (Springvale),-37.9479084,145.1388226,3,824,Clayton South
535,Fairfield Railway Station/Wingrove St (Fairfield),-37.7788634,145.01789,3,567,Alphington - Fairfield
536,Westall SC/Rosebank Ave (Clayton South),-37.94076775,145.1397538,3,824,Clayton South
537,Rosebank Ave/Wordsworth Ave (Clayton South),-37.93881793,145.1315874,3,824,Clayton South
538,17 Wordsworth Ave (Clayton South),-37.93670679,145.132005,3,824,Clayton South
539,Milton Ave/Oakes Ave (Clayton South),-37.93544863,145.1305235,3,824,Clayton South
540,Bevan Ave/Oakes Ave (Clayton South),-37.93515987,145.1282324,3,824,Clayton South
541,46 Main Rd (Clayton South),-37.9342997,145.1274122,3,824,Clayton South
542,McMillan St/Main Rd (Clayton South),-37.93271879,145.1277368,3,824,Clayton South
543,Centre Rd/Haughton Rd (Clayton South),-37.92985627,145.1268082,3,824,Clayton South
544,Audsley St/Centre Rd (Clayton South),-37.92906262,145.1228121,3,704,Clayton South
545,Audsley St/Centre Rd (Clayton South),-37.92906262,145.1228121,3,824,Clayton South
546,Fairfield Community Centre/Station St (Fairfield),-37.77667332,145.018414,3,567,Alphington - Fairfield
547,Fairfield Community Centre/Station St (Fairfield),-37.77667332,145.018414,3,609,Alphington - Fairfield
548,Olive St/Clayton Rd (Clayton South),-37.92971986,145.1188246,3,821,Clayton South
549,Olive St/Clayton Rd (Clayton South),-37.92971986,145.1188246,3,824,Clayton South
550,Kimbarra St/Clayton Rd (Clayton South),-37.9319466,145.1183127,3,821,Clayton South
551,Kimbarra St/Clayton Rd (Clayton South),-37.9319466,145.1183127,3,824,Clayton South
552,Byron St/Clayton Rd (Clayton South),-37.93496679,145.1178261,3,821,Clayton South
553,Byron St/Clayton Rd (Clayton South),-37.93496679,145.1178261,3,824,Clayton South
554,Whiteside Rd/Clayton Rd (Clayton South),-37.93835484,145.117239,3,821,Clayton South
555,Whiteside Rd/Clayton Rd (Clayton South),-37.93835484,145.117239,3,824,Clayton South
556,Clayton South Primary School/Clayton Rd (Clayton South),-37.94082533,145.1167549,3,705,Clayton South
557,Clayton South Primary School/Clayton Rd (Clayton South),-37.94082533,145.1167549,3,821,Clayton South
558,Clayton South Primary School/Clayton Rd (Clayton South),-37.94082533,145.1167549,3,824,Clayton South
559,Murphy St/Bourke Rd (Clarinda),-37.94287661,145.1154167,3,824,Clarinda South
560,Allwen Ct/Bourke Rd (Clarinda),-37.94252127,145.1123647,3,824,Clarinda South
561,Mitchell St/Station St (Fairfield),-37.7741212,145.0188454,3,567,Alphington - Fairfield
562,Mitchell St/Station St (Fairfield),-37.7741212,145.0188454,3,609,Alphington - Fairfield
563,Glenelg Dr/Bourke Rd (Clarinda),-37.94220974,145.1098009,3,824,Clarinda South
564,Springs Rd/Bourke Rd (Clarinda),-37.94179765,145.1065911,3,824,Clarinda South
565,Clarinda Shopping Centre/Bourke Rd (Clarinda),-37.9413522,145.1029953,3,824,Clarinda South
566,Clarinda Shopping Centre/Bourke Rd (Clarinda),-37.9413522,145.1029953,3,979,Clarinda South
567,Opp 53 Bourke Rd (Clarinda),-37.94092338,145.0993195,3,824,Clarinda South
568,Angus Ct/Bourke Rd (Oakleigh South),-37.94046705,145.0956216,3,824,Clarinda South
569,Cedar Ct/Bourke Rd (Oakleigh South),-37.94013844,145.0931381,3,824,Clarinda South
570,Barkers St/Old Dandenong Rd (Oakleigh South),-37.93791432,145.0893609,3,824,Clarinda South
571,Commonwealth Golf Course/69 Old Dandenong Rd (Oakleigh South),-37.93596162,145.0873179,3,824,Clarinda South
572,Commonwealth Golf Course/Old Dandenong Rd (Oakleigh South),-37.9339687,145.0844681,3,824,Clarinda South
573,Separation St/Station St (Fairfield),-37.77113842,145.0193905,3,567,Alphington - Fairfield
574,Eucalypt Ave/Williamsons Rd (Templestowe Lower),-37.77097885,145.1286904,3,902,Templestowe Lower
575,Eucalypt Ave/Williamsons Rd (Templestowe Lower),-37.77097885,145.1286904,3,293,Templestowe Lower
576,Tecoma Ct/Old Dandenong Rd (Oakleigh South),-37.93237986,145.0820859,3,824,Clarinda South
577,Warrigal Rd/South Rd (Moorabbin),-37.93863706,145.0784072,3,824,Bentleigh East
578,Kingsway/South Rd (Moorabbin),-37.93809268,145.074325,3,824,Moorabbin - Heatherton
579,Alex Ave/South Rd (Moorabbin),-37.93768714,145.0710244,3,824,Moorabbin - Heatherton
580,The Sandbelt Club/South Rd (Moorabbin),-37.93748641,145.0681281,3,824,Moorabbin - Heatherton
581,Sullivan St/South Rd (Moorabbin),-37.93693548,145.0642169,3,824,Moorabbin - Heatherton
582,Chesterville Rd/South Rd (Moorabbin),-37.93644315,145.0605888,3,824,Moorabbin - Heatherton
583,Rowans Rd/South Rd (Moorabbin),-37.93608075,145.05665,3,824,Moorabbin - Heatherton
584,Edwin St/Station St (Fairfield),-37.76932246,145.0196547,3,567,Alphington - Fairfield
585,Holmesglen TAFE/South Rd (Moorabbin),-37.93530908,145.0519483,3,824,Moorabbin - Heatherton
586,Delhi St/Mitcham Rd (Mitcham),-37.8190587,145.1939587,3,736,Mitcham
587,Delhi St/Mitcham Rd (Mitcham),-37.8190587,145.1939587,3,765,Mitcham
588,Agra St/Mitcham Rd (Mitcham),-37.82085457,145.1941195,3,736,Mitcham
589,Agra St/Mitcham Rd (Mitcham),-37.82085457,145.1941195,3,765,Mitcham
590,Lucknow St/Mitcham Rd (Mitcham),-37.82437318,145.1943745,3,736,Mitcham
591,Lucknow St/Mitcham Rd (Mitcham),-37.82437318,145.1943745,3,765,Mitcham
592,Rangeview Shopping Centre/Mitcham Rd (Mitcham),-37.82698121,145.1946064,3,736,Mitcham
593,Rangeview Shopping Centre/Mitcham Rd (Mitcham),-37.82698121,145.1946064,3,765,Mitcham
594,Vernal Ave/Mitcham Rd (Mitcham),-37.82843405,145.19473,3,736,Mitcham
595,Vernal Ave/Mitcham Rd (Mitcham),-37.82843405,145.19473,3,765,Mitcham
596,Picadilly St/Golf Rd (Oakleigh South),-37.91358532,145.0889782,3,733,Oakleigh - Huntingdale
597,Metropolitan Golf Course/opp 9 Golf Rd (Oakleigh South),-37.91114197,145.0894623,3,733,Oakleigh - Huntingdale
598,North Rd/Golf Links Ave (Oakleigh),-37.90872073,145.0907534,3,733,Oakleigh - Huntingdale
599,Ryan St/Blyth St (Brunswick East),-37.76746381,144.9812992,3,503,Brunswick East
600,Darebin Rd/Station St (Fairfield),-37.76666243,145.0201003,3,567,Alphington - Fairfield
601,Lee St/Roberts St (Brunswick East),-37.76614856,144.9823794,3,503,Brunswick East
602,Stewart St/Nicholson St (Brunswick East),-37.76495566,144.9806068,3,503,Brunswick East
603,Glenmorgan St/Nicholson St (Brunswick East),-37.76362757,144.9793602,3,503,Brunswick East
604,Lyndhurst Cres/Nicholson St (Brunswick East),-37.76248809,144.9775523,3,503,Brunswick East
605,Lygon St/Albion St (Brunswick East),-37.76194894,144.9729242,3,503,Brunswick
606,Leithead St/Albion St (Brunswick),-37.76160186,144.9700391,3,503,Brunswick
607,Austin Tce/Albion St (Brunswick),-37.76142077,144.9684208,3,503,Brunswick
608,De Carle St/Albion St (Brunswick),-37.76100857,144.9649018,3,503,Brunswick
609,Sydney Rd/Albion St (Brunswick),-37.76078548,144.9629441,3,503,Brunswick
610,Anstey Railway Station/217 Albion St (Brunswick),-37.76057451,144.9611678,3,503,Brunswick
611,John Cain Memorial Park/Station St (Thornbury),-37.76317557,145.0206814,3,567,Thornbury
612,Austral Ave/Albion St (Brunswick),-37.7600461,144.9566759,3,503,Brunswick
613,Patterson St/Albion St (Brunswick),-37.75973998,144.9540963,3,503,Brunswick
614,Thistle St/Albion St (Brunswick),-37.75942362,144.9514488,3,503,Brunswick
615,Cornwall St/Albion St (Brunswick West),-37.75916369,144.9494582,3,503,Brunswick West
616,Trenoweth St/Albion St (Brunswick West),-37.75882763,144.9467206,3,503,Brunswick West
617,Melville Rd/Albion St (Brunswick West),-37.75860969,144.9445586,3,503,Brunswick West
618,Wales St/Albion St (Brunswick West),-37.75828609,144.9420249,3,503,Brunswick West
619,Gronn Pl/Albion St (Brunswick West),-37.75797331,144.9390824,3,503,Brunswick West
620,Yarrabin St/Albion St (Brunswick West),-37.7576592,144.9365826,3,503,Brunswick West
621,Clarendon St/Station St (Thornbury),-37.7614677,145.0209426,3,567,Thornbury
622,Hopetoun St/Albion St (Brunswick West),-37.75741883,144.9346937,3,503,Brunswick West
623,Lawson St/Albion St (Essendon),-37.75667948,144.9321036,3,503,Essendon - Aberfeldie
624,Tennyson St/Albion St (Essendon),-37.75646403,144.9306114,3,503,Essendon - Aberfeldie
625,McPherson St/Albion St (Essendon),-37.75629323,144.9285844,3,503,Essendon - Aberfeldie
626,Pascoe Vale Rd/Albion St (Essendon),-37.75598449,144.9264023,3,503,Essendon - Aberfeldie
627,Pascoe Vale Rd/Brewster St (Essendon),-37.75138259,144.925044,3,503,Essendon - Aberfeldie
628,Kalimna St/Brewster St (Essendon),-37.75118787,144.9231994,3,503,Essendon - Aberfeldie
629,Peterleigh Gr/Brewster St (Essendon),-37.75097431,144.92131,3,503,Essendon - Aberfeldie
630,Napier St/Brewster St (Essendon),-37.75075832,144.9192845,3,503,Essendon - Aberfeldie
631,Rossmoyne Village/Station St (Thornbury),-37.75953596,145.0212892,3,567,Thornbury
632,Station St/Cheltenham Rd (Dandenong),-37.99144912,145.2093477,3,857,Dandenong
633,Station St/Cheltenham Rd (Dandenong),-37.99144912,145.2093477,3,890,Dandenong
634,Station St/Cheltenham Rd (Dandenong),-37.99144912,145.2093477,3,901,Dandenong
635,Cheltenham Rd/George St (Dandenong),-37.98933685,145.204981,3,828,Dandenong
636,Cheltenham Rd/George St (Dandenong),-37.98933685,145.204981,3,857,Dandenong
637,Cheltenham Rd/George St (Dandenong),-37.98933685,145.204981,3,890,Dandenong
638,Cheltenham Rd/George St (Dandenong),-37.98933685,145.204981,3,901,Dandenong
639,Langhorne Pl/Langhorne St (Dandenong),-37.98726043,145.2148013,3,802,Dandenong
640,Langhorne Pl/Langhorne St (Dandenong),-37.98726043,145.2148013,3,804,Dandenong
641,Langhorne Pl/Langhorne St (Dandenong),-37.98726043,145.2148013,3,811,Dandenong
642,Langhorne Pl/Langhorne St (Dandenong),-37.98726043,145.2148013,3,843,Dandenong
643,Langhorne Pl/Langhorne St (Dandenong),-37.98726043,145.2148013,3,845,Dandenong
644,Langhorne Pl/Langhorne St (Dandenong),-37.98726043,145.2148013,3,849,Dandenong
645,Langhorne Pl/Langhorne St (Dandenong),-37.98726043,145.2148013,3,850,Dandenong
646,Langhorne Pl/Langhorne St (Dandenong),-37.98726043,145.2148013,3,861,Dandenong
647,Langhorne Pl/Langhorne St (Dandenong),-37.98726043,145.2148013,3,862,Dandenong
648,Langhorne Pl/Langhorne St (Dandenong),-37.98726043,145.2148013,3,901,Dandenong
649,Langhorne Pl/Langhorne St (Dandenong),-37.98748286,145.2152058,3,802,Dandenong
650,Langhorne Pl/Langhorne St (Dandenong),-37.98748286,145.2152058,3,804,Dandenong
651,Langhorne Pl/Langhorne St (Dandenong),-37.98748286,145.2152058,3,811,Dandenong
652,Langhorne Pl/Langhorne St (Dandenong),-37.98748286,145.2152058,3,843,Dandenong
653,Langhorne Pl/Langhorne St (Dandenong),-37.98748286,145.2152058,3,845,Dandenong
654,Langhorne Pl/Langhorne St (Dandenong),-37.98748286,145.2152058,3,849,Dandenong
655,Langhorne Pl/Langhorne St (Dandenong),-37.98748286,145.2152058,3,850,Dandenong
656,Langhorne Pl/Langhorne St (Dandenong),-37.98748286,145.2152058,3,861,Dandenong
657,Langhorne Pl/Langhorne St (Dandenong),-37.98748286,145.2152058,3,862,Dandenong
658,Langhorne Pl/Langhorne St (Dandenong),-37.98748286,145.2152058,3,901,Dandenong
659,Keneally St/Cheltenham Rd (Dandenong),-37.98999432,145.2055457,3,857,Dandenong
660,Keneally St/Cheltenham Rd (Dandenong),-37.98999432,145.2055457,3,890,Dandenong
661,Keneally St/Cheltenham Rd (Dandenong),-37.98999432,145.2055457,3,901,Dandenong
662,Progress Rd/Wattletree Rd (Eltham North),-37.70275905,145.1522194,3,580,Eltham
663,Banks Rd/Wattletree Rd (Eltham North),-37.6963559,145.1496337,3,580,Eltham
664,Glen Gully Rd/Wattletree Rd (Eltham North),-37.69426649,145.1474287,3,580,Eltham
665,Casuarina Rdge/Wattletree Rd (Eltham North),-37.6906652,145.1453635,3,580,Eltham
666,Dundas St/Albert St (Preston),-37.75392777,145.0205874,3,567,Preston
667,Parry Rd/Ryans Rd (Eltham North),-37.68892677,145.1425603,3,580,Greensborough
668,Lesay Dr/Ryans Rd (St Helena),-37.68604955,145.1429837,3,343,Greensborough
669,Lesay Dr/Ryans Rd (St Helena),-37.68604955,145.1429837,3,580,Greensborough
670,Happy Valley Rise/Main St (Diamond Creek),-37.67385589,145.1481292,3,343,Wattle Glen Creek
671,Happy Valley Rise/Main St (Diamond Creek),-37.67385589,145.1481292,3,580,Wattle Glen Creek
672,Waigo Way/Brooks Cres (Diamond Creek),-37.67478685,145.1575056,3,580,Wattle Glen Creek
673,Hotham Ct/James Cook Dr (Diamond Creek),-37.68006054,145.1587585,3,580,Wattle Glen Creek
674,Raglan St/Albert St (Preston),-37.7504227,145.0211575,3,567,Preston
675,Farrer Cl/James Cook Dr (Diamond Creek),-37.6795607,145.1625355,3,580,Wattle Glen Creek
676,Patyah St/Phipps Cres (Diamond Creek),-37.67876527,145.1646982,3,580,Wattle Glen Creek
677,Main Hurstbridge Rd/Phipps Cres (Diamond Creek),-37.67515911,145.1651953,3,580,Wattle Glen Creek
678,Diamond Creek Plaza/Main Hurstbridge Rd (Diamond Creek),-37.67436721,145.1594889,3,343,Wattle Glen Creek
679,Diamond Creek Plaza/Main Hurstbridge Rd (Diamond Creek),-37.67436721,145.1594889,3,580,Wattle Glen Creek
680,Amaroo Ct/Broad Gully Rd (Diamond Creek),-37.66891756,145.157356,3,580,Wattle Glen Creek
681,Ryan St/Broad Gully Rd (Diamond Creek),-37.66934623,145.1536493,3,580,Wattle Glen Creek
682,Grassy Flat Rd/Broad Gully Rd (Diamond Creek),-37.66941438,145.1510966,3,580,Wattle Glen Creek
683,Oulton Reserve/Albert St (Preston),-37.74832919,145.021531,3,567,Preston
684,Clyde St/Collins St (Diamond Creek),-37.6720061,145.1497058,3,580,Wattle Glen Creek
685,Nillumbik Park/Chute St (Diamond Creek),-37.67332564,145.1539702,3,343,Wattle Glen Creek
686,Nillumbik Park/Chute St (Diamond Creek),-37.67332564,145.1539702,3,580,Wattle Glen Creek
687,Beech St/Alexander Ave (Thomastown),-37.68058701,145.0172884,3,559,Thomastown
688,Frederick St/Alexander Ave (Thomastown),-37.68094756,145.0205105,3,559,Thomastown
689,Acacia St/Alexander Ave (Thomastown),-37.68125482,145.0232464,3,559,Thomastown
690,Nick Ascenzo Reserve/Opp 105 Alexander Ave (Thomastown),-37.68168775,145.0270336,3,559,Thomastown
691,11 Darebin Dr (Thomastown),-37.68181342,145.0313165,3,559,Thomastown
692,Ovando St/Albert St (Preston),-37.74603732,145.0218985,3,567,Preston
693,Trenerry Cres/Johnston St (Abbotsford),-37.80048422,145.0003782,3,200,Abbotsford
694,Trenerry Cres/Johnston St (Abbotsford),-37.80048422,145.0003782,3,207,Abbotsford
695,Chapman Ave/Darebin Dr (Thomastown),-37.68188338,145.0338887,3,559,Thomastown
696,Bates Ave/Darebin Dr (Thomastown),-37.68016996,145.0354421,3,559,Thomastown
697,Valentine Ave/Darebin Dr (Thomastown),-37.67866901,145.0356858,3,559,Thomastown
698,McKimmies Rd/Darebin Dr (Thomastown),-37.67607171,145.0361171,3,559,Thomastown
699,Lalor Plaza/Darebin Dr (Lalor),-37.67404999,145.0364765,3,559,Lalor
700,Donald St/Darebin Dr (Lalor),-37.66924484,145.0358322,3,559,Lalor
701,Hertford Pl/Darebin Dr (Lalor),-37.66660876,145.0350174,3,559,Lalor
702,Dalton Rd/Burton St (Lalor),-37.66709852,145.031422,3,559,Lalor
703,49 Burton St (Lalor),-37.66695776,145.0300086,3,559,Lalor
704,Ruthven Cres/Burton St (Lalor),-37.66663996,145.0271714,3,559,Lalor
705,Eton St/Albert St (Preston),-37.74388095,145.022285,3,567,Preston
706,Cherry Ct/Edmondson St (Lalor),-37.66587198,145.0249017,3,559,Lalor
707,Edmondson St/Curtin Ave (Lalor),-37.66452824,145.0237696,3,559,Lalor
708,Newton Cres/Curtin Ave (Lalor),-37.66515227,145.0212136,3,559,Lalor
709,Peter Lalor Walk/Station St (Lalor),-37.67312663,145.015775,3,559,Lalor
710,Heath St/Station St (Thomastown),-37.67654127,145.0151851,3,559,Thomastown
711,Blake Park/Albert St (Preston),-37.74162795,145.0228216,3,567,Preston
712,Heather Ave/Spring St (Thomastown),-37.68184381,145.0052467,3,557,Thomastown
713,Johnson St/Spring St (Thomastown),-37.68226084,145.0091249,3,557,Thomastown
714,McLeod St/Spring St (Thomastown),-37.68261815,145.0126759,3,557,Thomastown
715,Cook Reserve/Victoria Dr (Thomastown),-37.67355042,144.9913076,3,557,Thomastown
716,Gillwell Rd/Barry Rd (Thomastown),-37.67151186,144.9938455,3,557,Thomastown
717,Franklin Rd/Edgars Rd (Lalor),-37.67011987,145.0031571,3,357,Lalor
718,Robert St/Edgars Rd (Lalor),-37.66776806,145.0042405,3,357,Lalor
719,Dion Cl/Edgars Rd (Lalor),-37.66538614,145.0051432,3,357,Lalor
720,Mount View Rd/Kingsway Dr (Lalor),-37.66460627,145.0075221,3,557,Lalor
721,Lyndon St/Kingsway Dr (Lalor),-37.66500999,145.0111504,3,557,Lalor
722,Linoak Ave/Kingsway Dr (Lalor),-37.66524274,145.0131961,3,557,Lalor
723,Mount View Rd/Main St (Thomastown),-37.67979342,145.0097691,3,357,Thomastown
724,Lantana Ave/Main St (Thomastown),-37.67942682,145.0062072,3,357,Thomastown
725,Simpson St/Main St (Thomastown),-37.67895487,145.0017523,3,357,Thomastown
726,Alexina St/Alfrieda St (St Albans),-37.74031273,144.8011384,3,418,St Albans
727,Alexina St/Alfrieda St (St Albans),-37.74031273,144.8011384,3,421,St Albans
728,Westvale Church/Alfrieda St (St Albans),-37.73775346,144.8016226,3,418,St Albans
729,Westvale Church/Alfrieda St (St Albans),-37.73775346,144.8016226,3,421,St Albans
730,Collins St/Biggs St (St Albans),-37.73697864,144.8025987,3,421,St Albans
731,Walmer Ave/Biggs St (St Albans),-37.73743546,144.8063185,3,421,St Albans
732,Leslie St/Biggs St (St Albans),-37.73776742,144.8091456,3,421,St Albans
733,40 Dorking Rd (Box Hill North),-37.81636664,145.1311687,3,270,Box Hill
734,9 Stenson Rd (Kealba),-37.73921615,144.8245925,3,421,Keilor Downs
735,Driscolls Rd/Stenson Rd (Kealba),-37.73827016,144.8280244,3,421,Keilor Downs
736,Harefield Cres/Driscolls Rd (Kealba),-37.73693278,144.8273373,3,421,Keilor Downs
737,Leavesdon Ave/Driscolls Rd (Kealba),-37.73488199,144.8255931,3,421,Keilor Downs
738,29 Driscolls Rd (Kealba),-37.73168752,144.822918,3,421,Keilor Downs
739,Green Gully Rd/Driscolls Rd (Kealba),-37.72832293,144.8207927,3,421,Keilor Downs
740,170 Green Gully Rd (Kealba),-37.72876499,144.8178978,3,421,Keilor Downs
741,17 Taylors Rd (St Albans),-37.72950426,144.813054,3,421,St Albans
742,Oslo Way/Taylors Rd (Keilor Downs),-37.72912225,144.8094685,3,418,St Albans
743,Oslo Way/Taylors Rd (Keilor Downs),-37.72912225,144.8094685,3,421,St Albans
744,Carbine Way/Taylors Rd (Keilor Downs),-37.72792313,144.7983167,3,418,Keilor Downs
745,Carbine Way/Taylors Rd (Keilor Downs),-37.72792313,144.7983167,3,421,Keilor Downs
746,Theodore St/Taylors Rd (Keilor Downs),-37.7280174,144.8004696,3,418,Keilor Downs
747,Theodore St/Taylors Rd (Keilor Downs),-37.7280174,144.8004696,3,421,Keilor Downs
748,Crevelli St/Tyler St (Preston),-37.73267569,145.0290737,3,567,Reservoir
749,Keilor Shopping Centre/Taylors Rd (Keilor Downs),-37.72732841,144.8060495,3,418,Keilor Downs
750,Keilor Shopping Centre/Taylors Rd (Keilor Downs),-37.72732841,144.8060495,3,421,Keilor Downs
751,Carbine Way/Goodwood Dr (Keilor Downs),-37.72578853,144.7954868,3,421,Keilor Downs
752,Goodwood Dr/Belmont Ave (Keilor Downs),-37.7242358,144.7963043,3,421,Keilor Downs
753,Thornhill Dr/Belmont Ave (Keilor Downs),-37.72362154,144.7996013,3,421,Keilor Downs
754,Belmont Ave/Copernicus Way (Keilor Downs),-37.7211646,144.8007404,3,421,Keilor Downs
755,Lancia Dr/Copernicus Way (Keilor Downs),-37.71971679,144.7984916,3,421,Keilor Downs
756,Goodwood Dr/Copernicus Way (Keilor Downs),-37.71915592,144.7950028,3,421,Keilor Downs
757,Roseberry Ave/Copernicus Way (Keilor Downs),-37.71779909,144.7918439,3,421,Keilor Downs
758,Burkitt Ct/Tyler St (Preston),-37.73287926,145.0310087,3,567,Reservoir
759,Darebin Ave/Copernicus Way (Keilor Downs),-37.71506488,144.7897243,3,421,Keilor Downs
760,Lady Nelson Way/Copernicus Way (Keilor Downs),-37.71266444,144.7895461,3,421,Keilor Downs
761,Lady Nelson Way/Chichester Dr (Taylors Lakes),-37.7117239,144.7932153,3,421,Taylors Lakes
762,Cocoparra Cres/Chichester Dr (Taylors Lakes),-37.70960334,144.7940269,3,421,Taylors Lakes
763,Reed (west) Cres/Bond Dr (Taylors Lakes),-37.70372693,144.7848551,3,419,Taylors Lakes
764,Reed (east) Cres/Bond Dr (Taylors Lakes),-37.70204626,144.7817408,3,419,Taylors Lakes
765,438 Nepean Hwy (Frankston),-38.14158201,145.1215086,3,779,Frankston
766,438 Nepean Hwy (Frankston),-38.14158201,145.1215086,3,780,Frankston
767,O'Grady Ave/Nepean Hwy (Frankston),-38.13786283,145.1233611,3,779,Frankston
768,O'Grady Ave/Nepean Hwy (Frankston),-38.13786283,145.1233611,3,780,Frankston
769,Mereweather Ave/Nepean Hwy (Frankston),-38.13438864,145.1241917,3,779,Frankston
770,Mereweather Ave/Nepean Hwy (Frankston),-38.13438864,145.1241917,3,780,Frankston
771,Seston St/Tyler St (Reservoir),-37.73313429,145.0333281,3,567,Reservoir
772,Ambassador Motel/340 Nepean Hwy (Frankston),-38.133022,145.1243865,3,779,Frankston
773,Ambassador Motel/340 Nepean Hwy (Frankston),-38.133022,145.1243865,3,780,Frankston
774,Nepean Hwy/Overton Rd (Frankston),-38.12947882,145.1254126,3,779,Frankston
775,Nepean Hwy/Overton Rd (Frankston),-38.12947882,145.1254126,3,780,Frankston
776,Kananook Ave/Boonong Ave (Seaford),-38.12568077,145.1268445,3,779,Seaford
777,Kananook Ave/Boonong Ave (Seaford),-38.12568077,145.1268445,3,780,Seaford
778,Fortescue Ave/Boonong Ave (Seaford),-38.12583517,145.1280498,3,779,Seaford
779,Kananook Primary School/Boonong Ave (Seaford),-38.12614863,145.1307569,3,779,Seaford
780,Kananook Station/Wells Rd (Seaford),-38.12120749,145.135115,3,778,Seaford
781,Kananook Station/Wells Rd (Seaford),-38.12120749,145.135115,3,779,Seaford
782,Kananook Station/Wells Rd (Seaford),-38.12120749,145.135115,3,832,Seaford
783,Kananook Station/Wells Rd (Seaford),-38.12120749,145.135115,3,901,Seaford
784,Vicroads Motor Registration Office/Hartnett Dr (Seaford),-38.11784296,145.140596,3,778,Seaford
785,Vicroads Motor Registration Office/Hartnett Dr (Seaford),-38.11784296,145.140596,3,779,Seaford
786,Peninsula Bvd/Hartnett Dr (Seaford),-38.11489466,145.14107,3,778,Seaford
787,Peninsula Bvd/Hartnett Dr (Seaford),-38.11489466,145.14107,3,779,Seaford
788,Heversham Dr/Hartnett Dr (Seaford),-38.11207771,145.1418714,3,778,Seaford
789,Heversham Dr/Hartnett Dr (Seaford),-38.11207771,145.1418714,3,779,Seaford
790,Sullivan Memorial Park/Seston St (Reservoir),-37.73187154,145.033804,3,567,Reservoir
791,Clarke St/Johnston St (Abbotsford),-37.80062579,145.0018168,3,200,Abbotsford
792,Clarke St/Johnston St (Abbotsford),-37.80062579,145.0018168,3,207,Abbotsford
793,Boonong Ave/Fortescue Ave (Seaford),-38.12551625,145.1278298,3,780,Seaford
794,Buna Ave/Fortescue Ave (Seaford),-38.12331478,145.1282283,3,780,Seaford
795,McCulloch Ave/Fortescue Ave (Seaford),-38.12107544,145.1285136,3,780,Seaford
796,Milne Ave/Fortescue Ave (Seaford),-38.11830036,145.1291092,3,780,Seaford
797,Moresby Ave/Fortescue Ave (Seaford),-38.11639632,145.1295114,3,780,Seaford
798,Bardia Ave/Fortescue Ave (Seaford),-38.11376499,145.1300804,3,780,Seaford
799,Seaford Rd/Fortescue Ave (Seaford),-38.11099109,145.1301853,3,780,Seaford
800,Johnstone St/Railway Pde (Seaford),-38.10933611,145.1298169,3,780,Seaford
801,Seaford Railway Station/Railway Pde (Seaford),-38.10428935,145.1286683,3,780,Seaford
802,Clingin St/Seston St (Reservoir),-37.72915851,145.0343183,3,567,Reservoir
803,Seaford North Reserve/Railway Pde (Seaford),-38.10030349,145.1284963,3,780,Seaford
804,Selsey St/Railway Pde (Seaford),-38.09634756,145.128506,3,780,Seaford
805,Armstrongs Rd/Railway Pde (Seaford),-38.09294056,145.1284675,3,780,Seaford
806,Arthur St/Railway Pde (Seaford),-38.09159783,145.1284675,3,780,Seaford
807,Coolibar Ave/Railway Pde (Seaford),-38.08891321,145.1279545,3,780,Seaford
808,Attunga Cres/Railway Pde (Seaford),-38.08510278,145.1274816,3,780,Seaford
809,Burrawong Ave/Railway Pde (Seaford),-38.08300738,145.1277517,3,780,Seaford
810,Kalimna St/Eel Race Rd (Carrum),-38.08176623,145.12621,3,780,Carrum - Patterson Lakes
811,Caddy Ct/Clingin St (Reservoir),-37.7287497,145.0325024,3,567,Reservoir
812,Sugar Berry Rise/Scarlet Oak Ave (Melton West),-37.6591171,144.5667097,3,455,Melton West
813,Stewart St/Nicholson St (Brunswick East),-37.76557525,144.9804765,3,503,Brunswick East
814,Glenmorgan St/Nicholson St (Brunswick East),-37.76358998,144.9792704,3,503,Brunswick East
815,Lyndhust Cres/Nicholson St (Brunswick East),-37.76261376,144.9780483,3,503,Brunswick East
816,Lygon St/Albion St (Brunswick East),-37.7620623,144.9732276,3,503,Brunswick
817,Barrow St/Albion St (Brunswick),-37.76159228,144.9694831,3,503,Brunswick
818,Mountfield St/Albion St (Brunswick),-37.7614523,144.9681588,3,503,Brunswick
819,De Carle St/Albion St (Brunswick),-37.76107123,144.9648774,3,503,Brunswick
820,Sydney Rd/Albion St (Brunswick),-37.76090299,144.9634858,3,503,Brunswick
821,Anstey Railway Station/222 Albion St (Brunswick),-37.76053473,144.960431,3,503,Brunswick
822,Progress Park/Chaleyer St (Reservoir),-37.72849381,145.0295931,3,567,Reservoir
823,Austral Ave/Albion St (Brunswick),-37.76010014,144.9566744,3,503,Brunswick
824,Westbourne St/Albion St (Brunswick),-37.75949884,144.9516284,3,503,Brunswick
825,Hamilton St/Albion St (Brunswick West),-37.75920261,144.9491053,3,503,Brunswick West
826,Wallace St/Albion St (Brunswick West),-37.75893948,144.9469331,3,503,Brunswick West
827,Melville Rd/Albion St (Brunswick West),-37.75875183,144.9454741,3,503,Brunswick West
828,Bent St/Albion St (Brunswick West),-37.75838132,144.9423174,3,503,Brunswick West
829,Gronn Pl/Albion St (Brunswick West),-37.75799152,144.9390932,3,503,Brunswick West
830,Yarrabin St/Albion St (Brunswick West),-37.75769185,144.9363887,3,503,Brunswick West
831,Waxman Pde/Albion St (Brunswick West),-37.75748227,144.9347146,3,503,Brunswick West
832,Eisenhower St/Chaleyer St (Reservoir),-37.72829382,145.0278737,3,567,Reservoir
833,Lawson St/Albion St (Essendon),-37.75693284,144.9326755,3,503,Essendon - Aberfeldie
834,Tennyson St/Albion St (Essendon),-37.75666215,144.9311166,3,503,Essendon - Aberfeldie
835,McPherson St/Albion St (Essendon),-37.7563833,144.9285819,3,503,Essendon - Aberfeldie
836,Pascoe Vale Rd/Albion St (Essendon),-37.7561324,144.9266139,3,503,Essendon - Aberfeldie
837,Raleigh St/Pascoe Vale Rd (Essendon),-37.75415222,144.9257271,3,503,Essendon - Aberfeldie
838,Raleigh St/Pascoe Vale Rd (Essendon),-37.75415222,144.9257271,3,510,Essendon - Aberfeldie
839,Pascoe Vale Rd/Brewster St (Essendon),-37.75148328,144.9246212,3,503,Essendon - Aberfeldie
840,Shaftesbury St/Brewster St (Essendon),-37.75121671,144.9222793,3,503,Essendon - Aberfeldie
841,Napier St/Brewster St (Essendon),-37.75087501,144.9187478,3,503,Essendon - Aberfeldie
842,Mashoobra St/Boundary Rd (Coburg North),-37.71865906,144.9569287,3,534,Coburg North
843,Adler Gr/Boundary Rd (Coburg North),-37.71836352,144.9539191,3,534,Coburg North
844,Shorts Rd/Lorensen Ave (Coburg North),-37.72352161,144.9608682,3,534,Coburg North
845,Athol St/Shorts Rd (Coburg North),-37.72354222,144.9578951,3,534,Coburg North
846,Guilfoyle Ave/Shorts Rd (Coburg North),-37.72318478,144.9544332,3,534,Coburg North
847,Merbein St/Sussex St (Pascoe Vale),-37.71753264,144.9517411,3,534,Pascoe Vale
848,Kingsley College/South St (Hadfield),-37.71545421,144.9498585,3,534,Pascoe Vale
849,Pascoe Vale Gardens Retirement Village/South St (Hadfield),-37.71502252,144.9462856,3,534,Pascoe Vale
850,Princess St/South St (Hadfield),-37.71465911,144.9430172,3,534,Pascoe Vale
851,Dorrington Ave/Albert St (Reservoir),-37.72652874,145.0247209,3,556,Reservoir
852,Dorrington Ave/Albert St (Reservoir),-37.72652874,145.0247209,3,382,Reservoir
853,Cumberland Rd/South St (Hadfield),-37.71443728,144.9411515,3,534,Pascoe Vale
854,West St/South St (Hadfield),-37.71402473,144.9376576,3,534,Pascoe Vale
855,Walter St/West St (Hadfield),-37.71169524,144.9374046,3,534,Glenroy
856,Ila St/West St (Glenroy),-37.70987168,144.9377388,3,534,Glenroy
857,West St/Glenroy Rd (Glenroy),-37.70739284,144.9377054,3,534,Glenroy
858,West St/Glenroy Rd (Glenroy),-37.70739284,144.9377054,3,951,Glenroy
859,Sewell Reserve/Glenroy Rd (Glenroy),-37.70708278,144.9349236,3,534,Glenroy
860,Northern Golf Club/Glenroy Rd (Glenroy),-37.70654888,144.9301744,3,534,Glenroy
861,Glenroy College/Cardinal Rd (Glenroy),-37.70468726,144.9288537,3,534,Glenroy
862,St Agnes Ct/Melbourne Ave (Glenroy),-37.70354051,144.9261634,3,534,Glenroy
863,Fenwick St/Chadstone Rd (Malvern East),-37.88227985,145.0791112,3,612,Malvern East
864,Corpus Christi School/Melbourne Ave (Glenroy),-37.70320958,144.923235,3,534,Glenroy
865,Corpus Christi School/Melbourne Ave (Glenroy),-37.70320958,144.923235,3,536,Glenroy
866,Churchill St/Melbourne Ave (Glenroy),-37.70289538,144.9207484,3,534,Glenroy
867,Churchill St/Melbourne Ave (Glenroy),-37.70289538,144.9207484,3,536,Glenroy
868,Jeffrey St/Lauricella Ave (Keilor East),-37.74565731,144.8613894,3,406,Keilor East
869,St Damian's PS/Settlement Rd (Bundoora),-37.69764146,145.0564736,3,902,Bundoora
870,Arcade Sq/West Gtwy (Keilor East),-37.74537607,144.8553373,3,406,Keilor East
871,Sterling Dr/Norwood Dr (Keilor East),-37.74183769,144.8525456,3,406,Keilor East
872,28 Sterling Dr (Keilor East),-37.74175311,144.8607755,3,406,Keilor East
873,Buckley St/Milleara Rd (Avondale Heights),-37.75213766,144.8614412,3,406,Keilor East
874,Chaumont Dr/Milleara Rd (Avondale Heights),-37.75519703,144.8601953,3,406,Keilor East
875,Holden Ave/Military Rd (Avondale Heights),-37.75702951,144.8598701,3,406,Keilor East
876,Ridley Ave/Military Rd (Avondale Heights),-37.76090433,144.8613476,3,406,Keilor East
877,Westminster Dr/Military Rd (Avondale Heights),-37.76347411,144.8624201,3,406,Keilor East
878,Alexander St/Military Rd (Avondale Heights),-37.76712599,144.8640291,3,406,Keilor East
879,Riverside Ave/Military Rd (Avondale Heights),-37.76962307,144.8650698,3,406,Keilor East
880,Glenside St/Canning St (Avondale Heights),-37.77076024,144.8686472,3,407,Keilor East
881,Glenside St/Canning St (Avondale Heights),-37.77076024,144.8686472,3,406,Keilor East
882,Rosamond Rd/Mitchell St (Maribyrnong),-37.7832438,144.8847754,3,406,Maribyrnong
883,Prince St/Mitchell St (Maribyrnong),-37.78350763,144.8874249,3,406,Maribyrnong
884,Birdwood St/Gordon St (Maribyrnong),-37.7852221,144.8905668,3,406,Maribyrnong
885,Birdwood St/Gordon St (Maribyrnong),-37.7852221,144.8905668,3,952,Maribyrnong
886,Owen St/Gordon St (Maribyrnong),-37.78746778,144.8901622,3,406,West Footscray - Tottenham
887,Ballarat Rd/Gordon St (Footscray),-37.79079023,144.8894999,3,406,West Footscray - Tottenham
888,Commercial Rd/Ballarat Rd (Footscray),-37.79211125,144.8923127,3,406,West Footscray - Tottenham
889,Victoria University/Ballarat Rd (Footscray),-37.79372922,144.8976268,3,409,West Footscray - Tottenham
890,Victoria University/Ballarat Rd (Footscray),-37.79372922,144.8976268,3,406,West Footscray - Tottenham
891,Victoria University/Ballarat Rd (Footscray),-37.79372922,144.8976268,3,941,West Footscray - Tottenham
892,Victoria University/Ballarat Rd (Footscray),-37.79372922,144.8976268,3,942,West Footscray - Tottenham
893,Victoria University/Ballarat Rd (Footscray),-37.79372922,144.8976268,3,952,West Footscray - Tottenham
894,28 McCubbin Dr (Taylors Lakes),-37.69370345,144.7746747,3,421,Taylors Lakes
895,28 McCubbin Dr (Taylors Lakes),-37.69370345,144.7746747,3,476,Taylors Lakes
896,Overnewton College/Robertsons Rd (Taylors Lakes),-37.69125971,144.7736364,3,421,Taylors Lakes
897,64 Robertsons Rd (Taylors Lakes),-37.68716304,144.7776485,3,421,Taylors Lakes
898,Carnarvon Cl/Palmerston Cres (Taylors Lakes),-37.68596344,144.7804625,3,421,Taylors Lakes
899,11 Palmerston Cres (Taylors Lakes),-37.68859185,144.7826974,3,421,Taylors Lakes
900,71 Wellesley Dr (Taylors Lakes),-37.69038404,144.7869533,3,421,Taylors Lakes
901,Lawson Ct/Wellesley Dr (Taylors Lakes),-37.69203088,144.7901931,3,421,Taylors Lakes
902,Preston Primary School/Tyler St (Preston),-37.73085628,145.0114323,3,567,Preston
903,Roseland Gr/St Elmo Rd (Ivanhoe),-37.76064245,145.0465506,3,548,Ivanhoe East - Eaglemont
904,Nordic Ave/Wellesley Dr (Taylors Lakes),-37.6941928,144.7930321,3,421,Taylors Lakes
905,43 Verona Dr (Taylors Lakes),-37.69555572,144.7955548,3,421,Taylors Lakes
906,Truro Cres/Verona Dr (Taylors Lakes),-37.69883998,144.7972154,3,421,Taylors Lakes
907,Taylors Lakes Shopping Centre/Melton Hwy (Taylors Lakes),-37.70173138,144.8005211,3,421,Taylors Lakes
908,Taylors Lakes Shopping Centre/Melton Hwy (Taylors Lakes),-37.70173138,144.8005211,3,941,Taylors Lakes
909,Wyperfeld Ave/Sunshine Ave (Keilor Downs),-37.71094189,144.8039353,3,419,Taylors Lakes
910,Swindon Cres/Odessa Ave (Keilor Downs),-37.71557726,144.8055681,3,419,Keilor Downs
911,Snowdon Cl/Odessa Ave (Keilor Downs),-37.71547677,144.8074315,3,419,Keilor Downs
912,Keilor Downs Secondary College/Odessa Ave (Keilor Downs),-37.71553432,144.8105267,3,419,Keilor Downs
913,Cromer Pl/Odessa Ave (Keilor Downs),-37.71833977,144.8121345,3,419,Keilor Downs
914,Tennyson Ave/Tyler St (Preston),-37.73053912,145.0086608,3,567,Preston
915,Tarella Dr/Odessa Ave (Keilor Downs),-37.72118363,144.8124138,3,419,Keilor Downs
916,Antwerp Dr/Odessa Ave (Keilor Downs),-37.72396941,144.8119915,3,419,Keilor Downs
917,Dongola Rd/Sunshine Ave (Keilor Downs),-37.72659921,144.8123906,3,419,Keilor Downs
918,Green Gully Rd/Sunshine Ave (St Albans),-37.73056729,144.8159501,3,419,St Albans
919,Green Gully Rd/Sunshine Ave (St Albans),-37.73056729,144.8159501,3,941,St Albans
920,Fox St/Sunshine Ave (St Albans),-37.73316743,144.8181543,3,419,St Albans
921,Norman St/Sunshine Ave (St Albans),-37.73508992,144.8197773,3,419,St Albans
922,William St/Sunshine Ave (St Albans),-37.7383362,144.822326,3,419,St Albans
923,Harcourt Ave/Sunshine Ave (St Albans),-37.7406742,144.824493,3,419,St Albans
924,Harcourt Ave/Sunshine Ave (St Albans),-37.7406742,144.824493,3,941,St Albans
925,105 Sunshine Ave (St Albans),-37.74310936,144.8265552,3,419,St Albans
926,73 Sunshine Ave (St Albans),-37.74516873,144.8282767,3,419,St Albans
927,McLaughlin Cres/Redleap Ave (Mill Park),-37.66178228,145.0663309,3,564,Mill Park
928,Sage Ave/Main Rd East (St Albans),-37.74759239,144.8282512,3,419,Keilor Downs
929,Wahgunyah Dr/Main Rd East (St Albans),-37.74730171,144.8261715,3,419,St Albans
930,Branston Rd/Main Rd East (St Albans),-37.74710232,144.8241573,3,419,St Albans
931,Cowper Ave/Main Rd East (St Albans),-37.74669424,144.8210937,3,419,St Albans
932,Errington Rd/Main Rd East (St Albans),-37.74607625,144.8154601,3,408,St Albans
933,Errington Rd/Main Rd East (St Albans),-37.74607625,144.8154601,3,419,St Albans
934,Leonard Ave/Main Rd East (St Albans),-37.74560444,144.8118878,3,408,St Albans
935,Leonard Ave/Main Rd East (St Albans),-37.74560444,144.8118878,3,419,St Albans
936,Erica Ave/Main Rd East (St Albans),-37.74463236,144.8032348,3,408,St Albans
937,Erica Ave/Main Rd East (St Albans),-37.74463236,144.8032348,3,419,St Albans
938,Edward St/Settlement Rd (Bundoora),-37.69742049,145.0545513,3,902,Bundoora
939,Outlook Rise/Settlement Rd (Bundoora),-37.69704921,145.0511698,3,902,Bundoora
940,Latrobe Ave/Settlement Rd (Bundoora),-37.69624562,145.0467223,3,902,Bundoora
941,High St/Station St (Reservoir),-37.72971303,145.0051088,3,567,Reservoir
942,Greenhills Rd/Settlement Rd (Bundoora),-37.6954474,145.0442368,3,902,Bundoora
943,Norris Cres/Settlement Rd (Bundoora),-37.69470295,145.0411942,3,902,Thomastown
944,Apex Ct/Settlement Rd (Thomastown),-37.69420238,145.0360244,3,902,Thomastown
945,Brand Dr/Settlement Rd (Thomastown),-37.69386441,145.0330506,3,902,Thomastown
946,42-Clyde St/Raleigh Rd (Maribyrnong),-37.76969864,144.8988413,0,57,Maribyrnong
947,42-Clyde St/Raleigh Rd (Maribyrnong),-37.76969864,144.8988413,0,82,Maribyrnong
948,Hanrahan St/Wood St (Thomastown),-37.6932312,145.0269772,3,902,Thomastown
949,Cheddar Rd West/Keon Pde (Reservoir),-37.69614289,145.0216489,3,902,Reservoir
950,Finton Gr/Keon Pde (Reservoir),-37.69557822,145.0164695,3,902,Reservoir
951,Keon Park Railway Station/Keon Pde (Reservoir),-37.69513111,145.0129316,3,902,Reservoir
952,High St/Mahoneys Rd (Reservoir),-37.69487708,145.0101598,3,902,Reservoir
953,William Ruthven Sec College/Mahoneys Rd (Reservoir),-37.69409124,145.0025935,3,902,Reservoir
954,Long St/Mahoneys Rd (Reservoir),-37.69370081,144.9987027,3,902,Reservoir
955,Callander St/Mahoneys Rd (Reservoir),-37.69331257,144.9949479,3,902,Reservoir
956,Hughes Pde/Mahoneys Rd (Reservoir),-37.69284358,144.9901633,3,902,Reservoir
957,Hughes Pde/Mahoneys Rd (Reservoir),-37.69284358,144.9901633,3,558,Reservoir
958,Orchid Ave/Mahoneys Rd (Reservoir),-37.69239938,144.9857864,3,902,Reservoir
959,Orchid Ave/Mahoneys Rd (Reservoir),-37.69239938,144.9857864,3,558,Reservoir
960,Lockton Ave/Mahoneys Rd (Reservoir),-37.69209424,144.9826986,3,902,Reservoir
961,Lockton Ave/Mahoneys Rd (Reservoir),-37.69209424,144.9826986,3,558,Reservoir
962,Sheargold Ct/Mahoneys Rd (Reservoir),-37.69162708,144.9780502,3,902,Reservoir
963,Phillip St/Mahoneys Rd (Reservoir),-37.69136654,144.9754716,3,902,Reservoir
964,Janice Ct/Mahoneys Rd (Campbellfield),-37.69022785,144.9632548,3,902,Campbellfield - Coolaroo
965,Campbellfield Plaza/Mahoneys Rd (Campbellfield),-37.68986181,144.959806,3,902,Campbellfield - Coolaroo
966,Moorhead Dr/Redleap Ave (Mill Park),-37.66356163,145.0649244,3,564,Mill Park
967,Concord Cct/Oakwood Rd (Albanvale),-37.75081471,144.7687313,3,424,Kings Park
968,Woodland Dr/Oakwood Rd (Albanvale),-37.74631516,144.7700127,3,424,Kings Park
969,Kardinia Dr/Oakwood Rd (Albanvale),-37.74450981,144.7703279,3,424,Kings Park
970,Delamare Dr/Evergreen Ave (Albanvale),-37.74339473,144.7652206,3,424,Kings Park
971,Wintersun Dr/Evergreen Ave (Albanvale),-37.74461154,144.7633342,3,424,Kings Park
972,98 Opie Rd (Albanvale),-37.74404914,144.761717,3,424,Kings Park
973,134 Opie Rd (Albanvale),-37.74188665,144.7631552,3,424,Kings Park
974,401 Main Rd West (Albanvale),-37.74042473,144.7649468,3,424,Kings Park
975,Entally Dr/Main Rd West (Albanvale),-37.74061075,144.7666774,3,424,Kings Park
976,Buckmaster Dr/Redleap Ave (Mill Park),-37.6651314,145.0655751,3,564,Mill Park
977,Copperfield College Junior Campus/Gillespie Rd (Kings Park),-37.73332465,144.771662,3,425,Kings Park
978,Maplewood Rd/Gillespie Rd (Kings Park),-37.7337061,144.7751568,3,425,Kings Park
979,Mavis Cres/Gillespie Rd (St Albans),-37.73417318,144.7793751,3,425,Kings Park
980,Kings Rd/Gillespie Rd (St Albans),-37.73437072,144.7817294,3,425,St Albans
981,Charlbury Gr/Gillespie Rd (St Albans),-37.73470492,144.7851235,3,425,St Albans
982,Atheldene Dr/Gillespie Rd (St Albans),-37.73503619,144.7888468,3,425,St Albans
983,Andrew Rd/Jamieson St (St Albans),-37.73610393,144.7885994,3,425,St Albans
984,John St/Jamieson St (St Albans),-37.73894743,144.7869375,3,425,St Albans
985,Shirley St/James St (St Albans),-37.73964649,144.7886529,3,425,St Albans
986,Mill Park Stables Shopping Centre/Redleap Ave (Mill Park),-37.66765913,145.0630947,3,564,Mill Park
987,James St/Emily St (St Albans),-37.74039196,144.7923641,3,425,St Albans
988,Elizabeth St/Emily St (St Albans),-37.74274361,144.791863,3,425,St Albans
989,Scott Ave/Main Rd West (St Albans),-37.7437244,144.794671,3,424,St Albans
990,Scott Ave/Main Rd West (St Albans),-37.7437244,144.794671,3,425,St Albans
991,Tintern Gr/Bernard St (Cheltenham),-37.95282291,145.0592817,3,811,Cheltenham - Highett
992,Tintern Gr/Bernard St (Cheltenham),-37.95282291,145.0592817,3,812,Cheltenham - Highett
993,Tintern Gr/Bernard St (Cheltenham),-37.95282291,145.0592817,3,821,Cheltenham - Highett
994,Parnell St/Bernard St (Cheltenham),-37.95323386,145.0623438,3,811,Cheltenham - Highett
995,Parnell St/Bernard St (Cheltenham),-37.95323386,145.0623438,3,812,Cheltenham - Highett
996,Parnell St/Bernard St (Cheltenham),-37.95323386,145.0623438,3,821,Cheltenham - Highett
997,Christensen St/Bernard St (Cheltenham),-37.95355319,145.0647709,3,811,Cheltenham - Highett
998,Christensen St/Bernard St (Cheltenham),-37.95355319,145.0647709,3,812,Cheltenham - Highett
999,Christensen St/Bernard St (Cheltenham),-37.95355319,145.0647709,3,821,Cheltenham - Highett
1000,Cheltenham Secondary College/Bernard St (Cheltenham),-37.95396699,145.0680151,3,811,Cheltenham - Highett
1001,Cheltenham Secondary College/Bernard St (Cheltenham),-37.95396699,145.0680151,3,812,Cheltenham - Highett
1002,Cheltenham Secondary College/Bernard St (Cheltenham),-37.95396699,145.0680151,3,821,Cheltenham - Highett
1003,Dissik St/Bernard St (Cheltenham),-37.95439047,145.0713045,3,811,Cheltenham - Highett
1004,Dissik St/Bernard St (Cheltenham),-37.95439047,145.0713045,3,812,Cheltenham - Highett
1005,Dissik St/Bernard St (Cheltenham),-37.95439047,145.0713045,3,821,Cheltenham - Highett
1006,Dissik St/Bernard St (Cheltenham),-37.95439047,145.0713045,3,631,Cheltenham - Highett
1007,Kingston Centre/Bernard St (Cheltenham),-37.95460198,145.0759653,3,821,Cheltenham - Highett
1008,Kingston Centre/Bernard St (Cheltenham),-37.95460198,145.0759653,3,631,Cheltenham - Highett
1009,Kingston Centre/Kingston Rd (Heatherton),-37.95326552,145.0780033,3,821,Moorabbin - Heatherton
1010,Kingston Centre/Kingston Rd (Heatherton),-37.95326552,145.0780033,3,631,Moorabbin - Heatherton
1011,Byng Ave/Kingston Rd (Heatherton),-37.95360096,145.0808853,3,821,Moorabbin - Heatherton
1012,Byng Ave/Kingston Rd (Heatherton),-37.95360096,145.0808853,3,631,Moorabbin - Heatherton
1013,Ball Rd/Kingston Rd (Heatherton),-37.95392955,145.0839042,3,821,Moorabbin - Heatherton
1014,Ball Rd/Kingston Rd (Heatherton),-37.95392955,145.0839042,3,631,Moorabbin - Heatherton
1015,Kingston Heath Golf Club/Kingston Rd (Heatherton),-37.95429575,145.0870245,3,821,Moorabbin - Heatherton
1016,Kingston Heath Golf Club/Kingston Rd (Heatherton),-37.95429575,145.0870245,3,631,Moorabbin - Heatherton
1017,Near Willis St/Kingston Rd (Heatherton),-37.95471172,145.0904395,3,821,Moorabbin - Heatherton
1018,Near Willis St/Kingston Rd (Heatherton),-37.95471172,145.0904395,3,631,Moorabbin - Heatherton
1019,Pietro St/Kingston Rd (Heatherton),-37.95522009,145.0945578,3,821,Moorabbin - Heatherton
1020,Pietro St/Kingston Rd (Heatherton),-37.95522009,145.0945578,3,631,Moorabbin - Heatherton
1021,Old Dandenong Rd/Kingston Rd (Heatherton),-37.9557934,145.0993573,3,821,Moorabbin - Heatherton
1022,Old Dandenong Rd/Kingston Rd (Heatherton),-37.9557934,145.0993573,3,631,Moorabbin - Heatherton
1023,Peace Rd/Kingston Rd (Clarinda),-37.95680718,145.1074577,3,821,Clarinda South
1024,Heatherton Christian College/Kingston Rd (Clarinda),-37.95738587,145.1120638,3,821,Clarinda South
1025,Kingston Rd/Clayton Rd (Clarinda),-37.95674191,145.1134917,3,705,Clarinda South
1026,Kingston Rd/Clayton Rd (Clarinda),-37.95674191,145.1134917,3,821,Clarinda South
1027,Childs Rd/Betula Ave (Mill Park),-37.66870404,145.0603239,3,382,Mill Park
1028,Childs Rd/Betula Ave (Mill Park),-37.66870404,145.0603239,3,564,Mill Park
1029,Ryans Rd/Clayton Rd (Clarinda),-37.95110953,145.1146145,3,705,Clarinda South
1030,Ryans Rd/Clayton Rd (Clarinda),-37.95110953,145.1146145,3,821,Clarinda South
1031,Tully Rd/Clayton Rd (Clarinda),-37.94727402,145.1153954,3,705,Clarinda South
1032,Tully Rd/Clayton Rd (Clarinda),-37.94727402,145.1153954,3,821,Clarinda South
1033,Bodley St/Clayton Rd (Clarinda),-37.94465022,145.1158721,3,705,Clarinda South
1034,Bodley St/Clayton Rd (Clarinda),-37.94465022,145.1158721,3,821,Clarinda South
1035,Wellington Rd/Blackburn Rd (Clayton),-37.91782718,145.1399793,3,631,Clayton
1036,Princes Hwy/Blackburn Rd (Clayton),-37.92060372,145.1394657,3,631,Clayton
1037,Ramu Pde/Waterdale Rd (Heidelberg West),-37.73571087,145.048999,3,550,Heidelberg West
1038,Ramu Pde/Waterdale Rd (Heidelberg West),-37.73571087,145.048999,3,551,Heidelberg West
1039,Centre Rd/Springs Rd (Clayton South),-37.92808914,145.1098554,3,631,Clayton South
1040,Bond St/Springs Rd (Clayton South),-37.93020701,145.1093005,3,631,Clarinda South
1041,Namatjira Park/56 Springs Rd (Clayton South),-37.93325252,145.1087105,3,631,Clarinda South
1042,Springs Rd/Bunney Rd (Clarinda),-37.93461425,145.1082091,3,631,Clarinda South
1043,Wilson St/Argus St (Cheltenham),-37.95847942,145.060749,3,631,Cheltenham - Highett
1044,Rosewarne Ave/Argus St (Cheltenham),-37.95881079,145.0633581,3,631,Cheltenham - Highett
1045,113 Cavanagh St (Cheltenham),-37.95678203,145.0665755,3,631,Cheltenham - Highett
1046,Henry St/Old Dandenong Rd (Heatherton),-37.95166185,145.098542,3,631,Moorabbin - Heatherton
1047,Old Dandenong Rd/Clarinda Rd (Heatherton),-37.94648682,145.0967294,3,631,Moorabbin - Heatherton
1048,Tammany Dr/Clarinda Rd (Clarinda),-37.94266008,145.0974881,3,631,Clarinda South
1049,Bourke Rd/Clarinda Rd (Clarinda),-37.93996467,145.0979901,3,631,Clarinda South
1050,131 Clarinda Rd (Clarinda),-37.93820406,145.0983427,3,631,Clarinda South
1051,Cleeland Rd/Clarinda Rd (Clarinda),-37.93526634,145.0989077,3,631,Clarinda South
1052,Clarinda Rd/Bunney Rd (Clarinda),-37.93357154,145.0999867,3,631,Clarinda South
1053,Hanover St/Albion St (Brunswick),-37.75979363,144.9540721,3,503,Brunswick
1054,Cantala Ave/Lower Plenty Rd (Rosanna),-37.73599366,145.0771678,3,513,Heidelberg - Rosanna
1055,Kambea Cres/Lower Plenty Rd (Viewbank),-37.73383883,145.0809796,3,513,Viewbank - Yallambie
1056,Graham Rd/Lower Plenty Rd (Viewbank),-37.73290246,145.0826945,3,513,Viewbank - Yallambie
1057,Heidelberg Golf Club/8 Main Rd (Lower Plenty),-37.72903968,145.1102417,3,513,Montmorency - Briar Hill
1058,Old Eltham Rd/Main Rd (Lower Plenty),-37.7281551,145.1118413,3,513,Montmorency - Briar Hill
1059,Alexandra Ave/Punt Rd (South Yarra),-37.83086439,144.9877644,3,246,South Yarra
1060,Para Rd/Main Rd (Lower Plenty),-37.72577034,145.1159978,3,901,Montmorency - Briar Hill
1061,Para Rd/Main Rd (Lower Plenty),-37.72577034,145.1159978,3,513,Montmorency - Briar Hill
1062,Cheverton Rd/Main Rd (Lower Plenty),-37.72503357,145.1195225,3,901,Montmorency - Briar Hill
1063,Cheverton Rd/Main Rd (Lower Plenty),-37.72503357,145.1195225,3,513,Montmorency - Briar Hill
1064,Beleura Gr/Main Rd (Montmorency),-37.72563284,145.1231948,3,901,Montmorency - Briar Hill
1065,Beleura Gr/Main Rd (Montmorency),-37.72563284,145.1231948,3,513,Montmorency - Briar Hill
1066,Main Rd/Bridge St (Eltham),-37.71885066,145.144502,3,902,Eltham
1067,Main Rd/Bridge St (Eltham),-37.71885066,145.144502,3,513,Eltham
1068,Susan St/Bridge St (Eltham),-37.71835193,145.1403054,3,902,Eltham
1069,Susan St/Bridge St (Eltham),-37.71835193,145.1403054,3,513,Eltham
1070,Adam Cres/Sherbourne Rd (Montmorency),-37.71742993,145.1372767,3,902,Montmorency - Briar Hill
1071,Adam Cres/Sherbourne Rd (Montmorency),-37.71742993,145.1372767,3,513,Montmorency - Briar Hill
1072,Rattray Rd/Sherbourne Rd (Montmorency),-37.71497833,145.1349784,3,902,Montmorency - Briar Hill
1073,Rattray Rd/Sherbourne Rd (Montmorency),-37.71497833,145.1349784,3,513,Montmorency - Briar Hill
1074,Karingal Dr/Sherbourne Rd (Montmorency),-37.71275103,145.1320507,3,902,Montmorency - Briar Hill
1075,Karingal Dr/Sherbourne Rd (Montmorency),-37.71275103,145.1320507,3,513,Montmorency - Briar Hill
1076,Acland St/Barkly St (St Kilda),-37.86925167,144.9807636,3,922,St Kilda
1077,Acland St/Barkly St (St Kilda),-37.86925167,144.9807636,3,923,St Kilda
1078,Acland St/Barkly St (St Kilda),-37.86925167,144.9807636,3,246,St Kilda
1079,Acland St/Barkly St (St Kilda),-37.86925167,144.9807636,3,600,St Kilda
1080,Acland St/Barkly St (St Kilda),-37.86925167,144.9807636,3,606,St Kilda
1081,Calrossie Ave/Sherbourne Rd (Montmorency),-37.71128145,145.1297394,3,902,Montmorency - Briar Hill
1082,Calrossie Ave/Sherbourne Rd (Montmorency),-37.71128145,145.1297394,3,513,Montmorency - Briar Hill
1083,Baldwin Ave/Sherbourne Rd (Montmorency),-37.7099302,145.1269374,3,902,Montmorency - Briar Hill
1084,Baldwin Ave/Sherbourne Rd (Montmorency),-37.7099302,145.1269374,3,513,Montmorency - Briar Hill
1085,Hughes St/Sherbourne Rd (Montmorency),-37.70967482,145.1227807,3,902,Montmorency - Briar Hill
1086,Hughes St/Sherbourne Rd (Montmorency),-37.70967482,145.1227807,3,513,Montmorency - Briar Hill
1087,Sherbourne Rd/Mountain View Rd (Briar Hill),-37.70915757,145.119731,3,513,Montmorency - Briar Hill
1088,Community Hall/131 Mountain View Rd (Briar Hill),-37.70791772,145.1182763,3,513,Montmorency - Briar Hill
1089,River St/Mountain View Rd (Briar Hill),-37.70620489,145.1165501,3,513,Montmorency - Briar Hill
1090,Harold St/Mountain View Rd (Briar Hill),-37.7031841,145.115878,3,513,Greensborough
1091,St Helena Rd/Mountain View Rd (Greensborough),-37.7004838,145.1149595,3,513,Greensborough
1092,Henry St/Ester St (Greensborough),-37.70552573,145.1000631,3,513,Greensborough
1093,Vermont Pde/McDowell St (Greensborough),-37.70653256,145.096555,3,513,Greensborough
1094,Park Orchards Primary School/Park Rd (Park Orchards),-37.77778963,145.2144702,3,271,Donvale - Park Orchards
1095,Park Orchards Primary School/Park Rd (Park Orchards),-37.77778963,145.2144702,3,303,Donvale - Park Orchards
1096,Medbury Ave/Delta Rd (Greensborough),-37.70933694,145.0960976,3,513,Greensborough
1097,Sainsbury Ave/Delta Rd (Greensborough),-37.71098531,145.0954882,3,513,Greensborough
1098,Nepean St/Delta Rd (Greensborough),-37.71253792,145.0945296,3,513,Greensborough
1099,Delta Rd/Elder St (Watsonia),-37.71443084,145.0928815,3,513,Watsonia
1100,Elder Street Reserve/63 Elder St (Watsonia),-37.71411542,145.0900989,3,513,Watsonia
1101,Yerrawa Dr/Elder St (Watsonia),-37.7130596,145.0877891,3,513,Watsonia
1102,Papua St/Elder St (Watsonia),-37.71186146,145.0861523,3,513,Watsonia
1103,Watsonia Rd/Greensborough Hwy (Watsonia),-37.71500338,145.0826228,3,513,Watsonia
1104,Brighton Rd/Glen Huntly Rd (Elwood),-37.88365098,144.9959703,3,246,Elwood
1105,Torbay St/Greensborough Hwy (Macleod),-37.71831891,145.0814595,3,513,Viewbank - Yallambie
1106,Yallambie Rd/Greensborough Hwy (Yallambie),-37.72034115,145.0811237,3,513,Viewbank - Yallambie
1107,Simpson Army Barracks/Greensborough Hwy (Yallambie),-37.721501,145.0809576,3,513,Viewbank - Yallambie
1108,Strathallan Rd/Greensborough Hwy (Yallambie),-37.72463749,145.0804229,3,513,Viewbank - Yallambie
1109,O'Keefe St/Bell St (Preston),-37.74624716,145.01455,3,513,Preston
1110,Liberty Pde/Bell St (Heidelberg West),-37.74917392,145.0370121,3,513,Heidelberg West
1111,The Mall/Bell St (Heidelberg West),-37.74991418,145.0419637,3,513,Heidelberg West
1112,Melbourne Polytechnic/Bell St (Heidelberg West),-37.75076246,145.0452896,3,903,Heidelberg West
1113,Melbourne Polytechnic/Bell St (Heidelberg West),-37.75076246,145.0452896,3,513,Heidelberg West
1114,Gotha St/Bell St (Heidelberg Heights),-37.7517801,145.0479641,3,903,Heidelberg West
1115,Gotha St/Bell St (Heidelberg Heights),-37.7517801,145.0479641,3,513,Heidelberg West
1116,Edwin St/Bell St (Heidelberg Heights),-37.75277834,145.0505598,3,903,Heidelberg West
1117,Edwin St/Bell St (Heidelberg Heights),-37.75277834,145.0505598,3,513,Heidelberg West
1118,Tennyson St/Glen Huntly Rd (Elwood),-37.8831262,144.9916184,3,246,Elwood
1119,Myrtle St/Bell St (Heidelberg Heights),-37.75386229,145.053437,3,903,Heidelberg West
1120,Myrtle St/Bell St (Heidelberg Heights),-37.75386229,145.053437,3,513,Heidelberg West
1121,Upper Heidelberg Rd/Bell St (Heidelberg Heights),-37.75475908,145.0558993,3,903,Heidelberg West
1122,Upper Heidelberg Rd/Bell St (Heidelberg Heights),-37.75475908,145.0558993,3,513,Heidelberg West
1123,Sheffields Lane/Cape St (Heidelberg),-37.75579159,145.0671662,3,513,Heidelberg - Rosanna
1124,Heidelberg Primary School/Darebin St (Heidelberg),-37.75464362,145.0697045,3,513,Heidelberg - Rosanna
1125,Brown St/Rosanna Rd (Heidelberg),-37.75212404,145.0704851,3,513,Heidelberg - Rosanna
1126,Reid St/Rosanna Rd (Heidelberg),-37.7500127,145.0708804,3,513,Heidelberg - Rosanna
1127,St James Rd/Rosanna Rd (Heidelberg),-37.74857548,145.0711674,3,513,Heidelberg - Rosanna
1128,Station Rd/Rosanna Rd (Rosanna),-37.74599626,145.0716089,3,513,Heidelberg - Rosanna
1129,Millicent St/Lower Plenty Rd (Rosanna),-37.74041555,145.0692684,3,513,Heidelberg - Rosanna
1130,Arden Cres/Lower Plenty Rd (Rosanna),-37.7393551,145.0711004,3,513,Heidelberg - Rosanna
1131,Daley St/Glen Huntly Rd (Elwood),-37.88298737,144.9903487,3,246,Elwood
1132,Milford Gr/Lower Plenty Rd (Rosanna),-37.73798879,145.0735189,3,513,Heidelberg - Rosanna
1133,Cantala Ave/Lower Plenty Rd (Rosanna),-37.73612119,145.0766993,3,513,Heidelberg - Rosanna
1134,Kambea Cres/Lower Plenty Rd (Yallambie),-37.73400075,145.080408,3,513,Viewbank - Yallambie
1135,Graham Rd/Lower Plenty Rd (Yallambie),-37.73271089,145.0825519,3,513,Viewbank - Yallambie
1136,Old Eltham Rd/Main Rd (Lower Plenty),-37.72820744,145.1111705,3,513,Montmorency - Briar Hill
1137,Para Rd/Main Rd (Lower Plenty),-37.72654953,145.1140038,3,901,Montmorency - Briar Hill
1138,Para Rd/Main Rd (Lower Plenty),-37.72654953,145.1140038,3,513,Montmorency - Briar Hill
1139,Kett St/Main Rd (Lower Plenty),-37.72486422,145.1196402,3,901,Montmorency - Briar Hill
1140,Kett St/Main Rd (Lower Plenty),-37.72486422,145.1196402,3,513,Montmorency - Briar Hill
1141,Looker Rd/Main Rd (Montmorency),-37.72532851,145.12276,3,901,Montmorency - Briar Hill
1142,Looker Rd/Main Rd (Montmorency),-37.72532851,145.12276,3,513,Montmorency - Briar Hill
1143,Library Pl/Main Rd (Eltham),-37.71573164,145.1473139,3,902,Eltham
1144,Library Pl/Main Rd (Eltham),-37.71573164,145.1473139,3,513,Eltham
1145,Elwood Canal/Glen Huntly Rd (Elwood),-37.88267643,144.9874464,3,246,Elwood
1146,Alistair Knox Park/Main Rd (Eltham),-37.71838972,145.1461359,3,902,Eltham
1147,Alistair Knox Park/Main Rd (Eltham),-37.71838972,145.1461359,3,513,Eltham
1148,Main Rd/Bridge St (Eltham),-37.7187703,145.1445494,3,902,Eltham
1149,Main Rd/Bridge St (Eltham),-37.7187703,145.1445494,3,513,Eltham
1150,Susan St/Bridge St (Eltham),-37.71834626,145.1410884,3,902,Eltham
1151,Susan St/Bridge St (Eltham),-37.71834626,145.1410884,3,513,Eltham
1152,Adam Cres/Sherbourne Rd (Eltham),-37.717351,145.1374148,3,902,Eltham
1153,Adam Cres/Sherbourne Rd (Eltham),-37.717351,145.1374148,3,513,Eltham
1154,Stephen St/Sherbourne Rd (Eltham),-37.71488103,145.1350943,3,902,Eltham
